[
  {
    "State": "Alabama",
    "County": "Franklin",
    "Longitude": -87.843283,
    "Latitude": 34.44238135
  },
  {
    "State": "Georgia",
    "County": "Fannin",
    "Longitude": -84.31929617,
    "Latitude": 34.86412558
  },
  {
    "State": "Iowa",
    "County": "Kossuth",
    "Longitude": -94.20689787,
    "Latitude": 43.20413984
  },
  {
    "State": "Oklahoma",
    "County": "Ottawa",
    "Longitude": -94.81058917,
    "Latitude": 36.83587796
  },
  {
    "State": "Pennsylvania",
    "County": "Susquehanna",
    "Longitude": -75.80090451,
    "Latitude": 41.82127676
  },
  {
    "State": "Oklahoma",
    "County": "Grant",
    "Longitude": -97.78493404,
    "Latitude": 36.79651364
  },
  {
    "State": "Nebraska",
    "County": "Chase",
    "Longitude": -101.6979407,
    "Latitude": 40.52371008
  },
  {
    "State": "Missouri",
    "County": "Taney",
    "Longitude": -93.04127586,
    "Latitude": 36.65473646
  },
  {
    "State": "Nevada",
    "County": "Carson City",
    "Longitude": -119.7473502,
    "Latitude": 39.15108405
  },
  {
    "State": "Florida",
    "County": "Hardee",
    "Longitude": -81.80953792,
    "Latitude": 27.49319733
  },
  {
    "State": "Arkansas",
    "County": "Cleburne",
    "Longitude": -92.02725586,
    "Latitude": 35.53853919
  },
  {
    "State": "Texas",
    "County": "Bailey",
    "Longitude": -102.8298267,
    "Latitude": 34.06860316
  },
  {
    "State": "Utah",
    "County": "San Juan",
    "Longitude": -109.8043936,
    "Latitude": 37.62607487
  },
  {
    "State": "Nebraska",
    "County": "Polk",
    "Longitude": -97.56825226,
    "Latitude": 41.18687055
  },
  {
    "State": "Pennsylvania",
    "County": "Lebanon",
    "Longitude": -76.45759104,
    "Latitude": 40.36716938
  },
  {
    "State": "New Mexico",
    "County": "Los Alamos",
    "Longitude": -106.3065081,
    "Latitude": 35.86926339
  },
  {
    "State": "Oklahoma",
    "County": "Stephens",
    "Longitude": -97.85148899,
    "Latitude": 34.48542286
  },
  {
    "State": "Oklahoma",
    "County": "Lincoln",
    "Longitude": -96.88123961,
    "Latitude": 35.7027284
  },
  {
    "State": "Iowa",
    "County": "Cedar",
    "Longitude": -91.13246684,
    "Latitude": 41.77233777
  },
  {
    "State": "Iowa",
    "County": "Franklin",
    "Longitude": -93.26256925,
    "Latitude": 42.73270384
  },
  {
    "State": "Kansas",
    "County": "Pratt",
    "Longitude": -98.73915959,
    "Latitude": 37.6478469
  },
  {
    "State": "Mississippi",
    "County": "Neshoba",
    "Longitude": -89.11732685,
    "Latitude": 32.7532893
  },
  {
    "State": "Missouri",
    "County": "Polk",
    "Longitude": -93.40034649,
    "Latitude": 37.61649452
  },
  {
    "State": "Minnesota",
    "County": "Murray",
    "Longitude": -95.76328482,
    "Latitude": 44.02216709
  },
  {
    "State": "Missouri",
    "County": "Macon",
    "Longitude": -92.56453089,
    "Latitude": 39.83049768
  },
  {
    "State": "Wisconsin",
    "County": "Fond du Lac",
    "Longitude": -88.48885325,
    "Latitude": 43.75354908
  },
  {
    "State": "Tennessee",
    "County": "Trousdale",
    "Longitude": -86.15630295,
    "Latitude": 36.39236244
  },
  {
    "State": "Virginia",
    "County": "Manassas",
    "Longitude": -77.48515474,
    "Latitude": 38.7478445
  },
  {
    "State": "Texas",
    "County": "Midland",
    "Longitude": -102.0315682,
    "Latitude": 31.86904128
  },
  {
    "State": "Texas",
    "County": "Johnson",
    "Longitude": -97.36618817,
    "Latitude": 32.3788142
  },
  {
    "State": "Texas",
    "County": "Gillespie",
    "Longitude": -98.94676915,
    "Latitude": 30.31824095
  },
  {
    "State": "Wisconsin",
    "County": "Waushara",
    "Longitude": -89.24316913,
    "Latitude": 44.11328215
  },
  {
    "State": "Arizona",
    "County": "Mohave",
    "Longitude": -113.7581706,
    "Latitude": 35.70456821
  },
  {
    "State": "Florida",
    "County": "Charlotte",
    "Longitude": -81.91185513,
    "Latitude": 26.90579274
  },
  {
    "State": "Kansas",
    "County": "Decatur",
    "Longitude": -100.4593928,
    "Latitude": 39.78469039
  },
  {
    "State": "Kentucky",
    "County": "Cumberland",
    "Longitude": -85.38857248,
    "Latitude": 36.78661047
  },
  {
    "State": "South Dakota",
    "County": "Miner",
    "Longitude": -97.60992207,
    "Latitude": 44.02197882
  },
  {
    "State": "Oregon",
    "County": "Josephine",
    "Longitude": -123.5552595,
    "Latitude": 42.36551155
  },
  {
    "State": "Oregon",
    "County": "Curry",
    "Longitude": -124.1560919,
    "Latitude": 42.45776177
  },
  {
    "State": "New Mexico",
    "County": "Cibola",
    "Longitude": -107.9992972,
    "Latitude": 34.91240949
  },
  {
    "State": "Michigan",
    "County": "Alcona",
    "Longitude": -83.59385271,
    "Latitude": 44.68477825
  },
  {
    "State": "California",
    "County": "Trinity",
    "Longitude": -123.1126773,
    "Latitude": 40.65059444
  },
  {
    "State": "Alabama",
    "County": "Morgan",
    "Longitude": -86.85325062,
    "Latitude": 34.45331009
  },
  {
    "State": "Nebraska",
    "County": "Seward",
    "Longitude": -97.13966029,
    "Latitude": 40.8724014
  },
  {
    "State": "Oklahoma",
    "County": "Woodward",
    "Longitude": -99.26427063,
    "Latitude": 36.42251383
  },
  {
    "State": "Ohio",
    "County": "Hancock",
    "Longitude": -83.66630827,
    "Latitude": 41.00178146
  },
  {
    "State": "New York",
    "County": "Montgomery",
    "Longitude": -74.43985937,
    "Latitude": 42.90217659
  },
  {
    "State": "Indiana",
    "County": "Rush",
    "Longitude": -85.46543335,
    "Latitude": 39.62002576
  },
  {
    "State": "Missouri",
    "County": "Montgomery",
    "Longitude": -91.47020839,
    "Latitude": 38.94128519
  },
  {
    "State": "Kansas",
    "County": "Kiowa",
    "Longitude": -99.28576492,
    "Latitude": 37.55841651
  },
  {
    "State": "Mississippi",
    "County": "Prentiss",
    "Longitude": -88.51976883,
    "Latitude": 34.61811436
  },
  {
    "State": "Illinois",
    "County": "Washington",
    "Longitude": -89.41050166,
    "Latitude": 38.35241923
  },
  {
    "State": "Puerto Rico",
    "County": "Canvanas",
    "Longitude": -65.88710242,
    "Latitude": 18.33030521
  },
  {
    "State": "Nebraska",
    "County": "Thomas",
    "Longitude": -100.5556632,
    "Latitude": 41.91358968
  },
  {
    "State": "Missouri",
    "County": "Bollinger",
    "Longitude": -90.02562128,
    "Latitude": 37.3219182
  },
  {
    "State": "Georgia",
    "County": "Heard",
    "Longitude": -85.12848262,
    "Latitude": 33.296853
  },
  {
    "State": "Texas",
    "County": "Collin",
    "Longitude": -96.57266803,
    "Latitude": 33.18822716
  },
  {
    "State": "Texas",
    "County": "Crosby",
    "Longitude": -101.3000364,
    "Latitude": 33.61431553
  },
  {
    "State": "Texas",
    "County": "Coke",
    "Longitude": -100.5295971,
    "Latitude": 31.88933528
  },
  {
    "State": "Kentucky",
    "County": "Monroe",
    "Longitude": -85.71679611,
    "Latitude": 36.71217333
  },
  {
    "State": "Florida",
    "County": "Baker",
    "Longitude": -82.28452499,
    "Latitude": 30.3309289
  },
  {
    "State": "Kansas",
    "County": "Jewell",
    "Longitude": -98.21822331,
    "Latitude": 39.7847206
  },
  {
    "State": "Michigan",
    "County": "Bay",
    "Longitude": -83.99005144,
    "Latitude": 43.70716549
  },
  {
    "State": "North Carolina",
    "County": "Richmond",
    "Longitude": -79.74711644,
    "Latitude": 35.00590629
  },
  {
    "State": "Missouri",
    "County": "Butler",
    "Longitude": -90.40672985,
    "Latitude": 36.71638784
  },
  {
    "State": "Minnesota",
    "County": "Nobles",
    "Longitude": -95.75326093,
    "Latitude": 43.67428858
  },
  {
    "State": "Maine",
    "County": "Androscoggin",
    "Longitude": -70.20524042,
    "Latitude": 44.16543634
  },
  {
    "State": "Virginia",
    "County": "Poquoson",
    "Longitude": -76.35566972,
    "Latitude": 37.1307115
  },
  {
    "State": "Alabama",
    "County": "Butler",
    "Longitude": -86.68040924,
    "Latitude": 31.75252432
  },
  {
    "State": "North Carolina",
    "County": "Alexander",
    "Longitude": -81.17692946,
    "Latitude": 35.92074753
  },
  {
    "State": "North Carolina",
    "County": "Durham",
    "Longitude": -78.87606872,
    "Latitude": 36.03605321
  },
  {
    "State": "North Dakota",
    "County": "Eddy",
    "Longitude": -98.90182925,
    "Latitude": 47.71748723
  },
  {
    "State": "New York",
    "County": "Schenectady",
    "Longitude": -74.05833636,
    "Latitude": 42.81832249
  },
  {
    "State": "Minnesota",
    "County": "Le Sueur",
    "Longitude": -93.72984216,
    "Latitude": 44.37144158
  },
  {
    "State": "Missouri",
    "County": "Crawford",
    "Longitude": -91.30516204,
    "Latitude": 37.97649081
  },
  {
    "State": "Mississippi",
    "County": "Panola",
    "Longitude": -89.95079634,
    "Latitude": 34.3639856
  },
  {
    "State": "Puerto Rico",
    "County": "Maricao",
    "Longitude": -66.94265627,
    "Latitude": 18.1724996
  },
  {
    "State": "Puerto Rico",
    "County": "Juana Daz",
    "Longitude": -66.49544792,
    "Latitude": 18.05157356
  },
  {
    "State": "Iowa",
    "County": "Carroll",
    "Longitude": -94.86032705,
    "Latitude": 42.03617207
  },
  {
    "State": "Iowa",
    "County": "Grundy",
    "Longitude": -92.7914653,
    "Latitude": 42.40195716
  },
  {
    "State": "Mississippi",
    "County": "Stone",
    "Longitude": -89.11764244,
    "Latitude": 30.7900413
  },
  {
    "State": "South Dakota",
    "County": "Aurora",
    "Longitude": -98.56175096,
    "Latitude": 43.7180875
  },
  {
    "State": "Missouri",
    "County": "Ralls",
    "Longitude": -91.52194283,
    "Latitude": 39.5275593
  },
  {
    "State": "Texas",
    "County": "Stonewall",
    "Longitude": -100.2538401,
    "Latitude": 33.17906744
  },
  {
    "State": "Arizona",
    "County": "Coconino",
    "Longitude": -111.7705493,
    "Latitude": 35.83875351
  },
  {
    "State": "Colorado",
    "County": "Moffat",
    "Longitude": -108.2075581,
    "Latitude": 40.61858161
  },
  {
    "State": "Indiana",
    "County": "St. Joseph",
    "Longitude": -86.29001543,
    "Latitude": 41.61670349
  },
  {
    "State": "Arkansas",
    "County": "Monroe",
    "Longitude": -91.20394825,
    "Latitude": 34.67772323
  },
  {
    "State": "Ohio",
    "County": "Darke",
    "Longitude": -84.61945793,
    "Latitude": 40.13381861
  },
  {
    "State": "Mississippi",
    "County": "Alcorn",
    "Longitude": -88.57997736,
    "Latitude": 34.88083218
  },
  {
    "State": "Alaska",
    "County": "Hoonah-Angoon",
    "Longitude": -135.6386611,
    "Latitude": 58.28575804
  },
  {
    "State": "Florida",
    "County": "Lafayette",
    "Longitude": -83.18086561,
    "Latitude": 29.98555842
  },
  {
    "State": "Alaska",
    "County": "Yukon-Koyukuk",
    "Longitude": -151.3897031,
    "Latitude": 65.50922918
  },
  {
    "State": "Virginia",
    "County": "Danville",
    "Longitude": -79.40912354,
    "Latitude": 36.58309677
  },
  {
    "State": "Oklahoma",
    "County": "Hughes",
    "Longitude": -96.25062134,
    "Latitude": 35.04854478
  },
  {
    "State": "North Dakota",
    "County": "Logan",
    "Longitude": -99.47712748,
    "Latitude": 46.45733694
  },
  {
    "State": "Ohio",
    "County": "Huron",
    "Longitude": -82.59842269,
    "Latitude": 41.14651716
  },
  {
    "State": "Ohio",
    "County": "Champaign",
    "Longitude": -83.76966912,
    "Latitude": 40.13766698
  },
  {
    "State": "Nebraska",
    "County": "Dodge",
    "Longitude": -96.6539044,
    "Latitude": 41.57781563
  },
  {
    "State": "Nebraska",
    "County": "Johnson",
    "Longitude": -96.26520163,
    "Latitude": 40.39252282
  },
  {
    "State": "Iowa",
    "County": "Shelby",
    "Longitude": -95.31015553,
    "Latitude": 41.6850066
  },
  {
    "State": "Iowa",
    "County": "Wright",
    "Longitude": -93.73515113,
    "Latitude": 42.73305373
  },
  {
    "State": "Kentucky",
    "County": "Edmonson",
    "Longitude": -86.23847919,
    "Latitude": 37.20904677
  },
  {
    "State": "Michigan",
    "County": "Gratiot",
    "Longitude": -84.60482908,
    "Latitude": 43.29296993
  },
  {
    "State": "Puerto Rico",
    "County": "Comero",
    "Longitude": -66.22191082,
    "Latitude": 18.223828
  },
  {
    "State": "Wyoming",
    "County": "Natrona",
    "Longitude": -106.7988764,
    "Latitude": 42.96194049
  },
  {
    "State": "Kansas",
    "County": "Rooks",
    "Longitude": -99.3248686,
    "Latitude": 39.35022485
  },
  {
    "State": "Texas",
    "County": "Floyd",
    "Longitude": -101.3031546,
    "Latitude": 34.07227468
  },
  {
    "State": "Texas",
    "County": "Howard",
    "Longitude": -101.4356444,
    "Latitude": 32.30621324
  },
  {
    "State": "Texas",
    "County": "Mason",
    "Longitude": -99.22629725,
    "Latitude": 30.7177995
  },
  {
    "State": "Virginia",
    "County": "Fairfax",
    "Longitude": -77.29836489,
    "Latitude": 38.8534472
  },
  {
    "State": "Virginia",
    "County": "Buena Vista",
    "Longitude": -79.35459481,
    "Latitude": 37.73052263
  },
  {
    "State": "Puerto Rico",
    "County": "Ro Grande",
    "Longitude": -65.81320794,
    "Latitude": 18.34790658
  },
  {
    "State": "Florida",
    "County": "Palm Beach",
    "Longitude": -80.46503899,
    "Latitude": 26.64741122
  },
  {
    "State": "Indiana",
    "County": "Warren",
    "Longitude": -87.35336964,
    "Latitude": 40.34704622
  },
  {
    "State": "Kansas",
    "County": "Stanton",
    "Longitude": -101.7842716,
    "Latitude": 37.56304856
  },
  {
    "State": "Alaska",
    "County": "Nome",
    "Longitude": -164.0315808,
    "Latitude": 64.91040617
  },
  {
    "State": "Ohio",
    "County": "Lake",
    "Longitude": -81.23712921,
    "Latitude": 41.69689265
  },
  {
    "State": "North Carolina",
    "County": "Vance",
    "Longitude": -78.40836693,
    "Latitude": 36.36465914
  },
  {
    "State": "Montana",
    "County": "Sanders",
    "Longitude": -115.1333094,
    "Latitude": 47.67490166
  },
  {
    "State": "Mississippi",
    "County": "George",
    "Longitude": -88.64422567,
    "Latitude": 30.86260363
  },
  {
    "State": "Nebraska",
    "County": "Harlan",
    "Longitude": -99.40436605,
    "Latitude": 40.17656663
  },
  {
    "State": "Alaska",
    "County": "Kenai Peninsula",
    "Longitude": -151.5611779,
    "Latitude": 60.2537748
  },
  {
    "State": "Georgia",
    "County": "Atkinson",
    "Longitude": -82.88008089,
    "Latitude": 31.29704319
  },
  {
    "State": "Virginia",
    "County": "Greensville",
    "Longitude": -77.55962422,
    "Latitude": 36.67571583
  },
  {
    "State": "Wisconsin",
    "County": "Lafayette",
    "Longitude": -90.13189524,
    "Latitude": 42.66021077
  },
  {
    "State": "Ohio",
    "County": "Noble",
    "Longitude": -81.45612561,
    "Latitude": 39.7660752
  },
  {
    "State": "Minnesota",
    "County": "Hubbard",
    "Longitude": -94.91640615,
    "Latitude": 47.10785166
  },
  {
    "State": "Indiana",
    "County": "Martin",
    "Longitude": -86.80307723,
    "Latitude": 38.7079435
  },
  {
    "State": "Hawaii",
    "County": "Maui",
    "Longitude": -156.5692176,
    "Latitude": 20.86402572
  },
  {
    "State": "Iowa",
    "County": "Calhoun",
    "Longitude": -94.64046046,
    "Latitude": 42.38521079
  },
  {
    "State": "Iowa",
    "County": "Webster",
    "Longitude": -94.18176099,
    "Latitude": 42.42794934
  },
  {
    "State": "Kansas",
    "County": "Grant",
    "Longitude": -101.3079758,
    "Latitude": 37.56227336
  },
  {
    "State": "Mississippi",
    "County": "Smith",
    "Longitude": -89.50664426,
    "Latitude": 32.01792861
  },
  {
    "State": "Illinois",
    "County": "Bond",
    "Longitude": -89.43566372,
    "Latitude": 38.88688243
  },
  {
    "State": "Puerto Rico",
    "County": "Yauco",
    "Longitude": -66.8582991,
    "Latitude": 18.08109137
  },
  {
    "State": "Missouri",
    "County": "Dallas",
    "Longitude": -93.02340823,
    "Latitude": 37.68065861
  },
  {
    "State": "Nebraska",
    "County": "Wheeler",
    "Longitude": -98.52795068,
    "Latitude": 41.91485543
  },
  {
    "State": "Michigan",
    "County": "Jackson",
    "Longitude": -84.42251355,
    "Latitude": 42.24852059
  },
  {
    "State": "Texas",
    "County": "King",
    "Longitude": -100.2558057,
    "Latitude": 33.61643847
  },
  {
    "State": "Texas",
    "County": "Wise",
    "Longitude": -97.65458625,
    "Latitude": 33.215766
  },
  {
    "State": "Virginia",
    "County": "Lexington",
    "Longitude": -79.44575305,
    "Latitude": 37.78179822
  },
  {
    "State": "New York",
    "County": "Chemung",
    "Longitude": -76.75989461,
    "Latitude": 42.14122122
  },
  {
    "State": "Texas",
    "County": "Lamb",
    "Longitude": -102.3516289,
    "Latitude": 34.06859623
  },
  {
    "State": "Virginia",
    "County": "Staunton",
    "Longitude": -79.05960219,
    "Latitude": 38.15909322
  },
  {
    "State": "Alabama",
    "County": "Baldwin",
    "Longitude": -87.72274477,
    "Latitude": 30.72782468
  },
  {
    "State": "Arkansas",
    "County": "Polk",
    "Longitude": -94.2279123,
    "Latitude": 34.48595315
  },
  {
    "State": "California",
    "County": "San Luis Obispo",
    "Longitude": -120.4042917,
    "Latitude": 35.38707354
  },
  {
    "State": "Indiana",
    "County": "Franklin",
    "Longitude": -85.06053013,
    "Latitude": 39.41429175
  },
  {
    "State": "Kentucky",
    "County": "Pendleton",
    "Longitude": -84.36004407,
    "Latitude": 38.69570469
  },
  {
    "State": "Oklahoma",
    "County": "Roger Mills",
    "Longitude": -99.69538847,
    "Latitude": 35.68852706
  },
  {
    "State": "North Dakota",
    "County": "Cass",
    "Longitude": -97.24822334,
    "Latitude": 46.93292237
  },
  {
    "State": "North Carolina",
    "County": "Rockingham",
    "Longitude": -79.77527984,
    "Latitude": 36.39621434
  },
  {
    "State": "New Mexico",
    "County": "Eddy",
    "Longitude": -104.3041733,
    "Latitude": 32.47155056
  },
  {
    "State": "Minnesota",
    "County": "Olmsted",
    "Longitude": -92.40209709,
    "Latitude": 44.00380771
  },
  {
    "State": "California",
    "County": "Shasta",
    "Longitude": -122.0409443,
    "Latitude": 40.76391106
  },
  {
    "State": "Indiana",
    "County": "Brown",
    "Longitude": -86.22810056,
    "Latitude": 39.19645662
  },
  {
    "State": "Arkansas",
    "County": "Izard",
    "Longitude": -91.91279069,
    "Latitude": 36.09526565
  },
  {
    "State": "Wisconsin",
    "County": "Marinette",
    "Longitude": -88.03335785,
    "Latitude": 45.38289899
  },
  {
    "State": "Nebraska",
    "County": "Platte",
    "Longitude": -97.52073009,
    "Latitude": 41.57115154
  },
  {
    "State": "Nebraska",
    "County": "Arthur",
    "Longitude": -101.6959559,
    "Latitude": 41.56896142
  },
  {
    "State": "New Mexico",
    "County": "Torrance",
    "Longitude": -105.8505392,
    "Latitude": 34.64043207
  },
  {
    "State": "Michigan",
    "County": "Ogemaw",
    "Longitude": -84.12710722,
    "Latitude": 44.33486043
  },
  {
    "State": "Iowa",
    "County": "Henry",
    "Longitude": -91.54434433,
    "Latitude": 40.98760854
  },
  {
    "State": "Iowa",
    "County": "Union",
    "Longitude": -94.24234847,
    "Latitude": 41.0277278
  },
  {
    "State": "Minnesota",
    "County": "Beltrami",
    "Longitude": -94.93765473,
    "Latitude": 47.97364569
  },
  {
    "State": "Minnesota",
    "County": "McLeod",
    "Longitude": -94.27237288,
    "Latitude": 44.82372142
  },
  {
    "State": "Puerto Rico",
    "County": "Florida",
    "Longitude": -66.5598922,
    "Latitude": 18.37330319
  },
  {
    "State": "Nebraska",
    "County": "Hamilton",
    "Longitude": -98.02280046,
    "Latitude": 40.87318318
  },
  {
    "State": "Iowa",
    "County": "Floyd",
    "Longitude": -92.78940097,
    "Latitude": 43.0600053
  },
  {
    "State": "Kansas",
    "County": "Wilson",
    "Longitude": -95.74323255,
    "Latitude": 37.55937174
  },
  {
    "State": "Wisconsin",
    "County": "Eau Claire",
    "Longitude": -91.28609183,
    "Latitude": 44.726614
  },
  {
    "State": "Texas",
    "County": "Ector",
    "Longitude": -102.5429428,
    "Latitude": 31.86898877
  },
  {
    "State": "Texas",
    "County": "Zavala",
    "Longitude": -99.76049166,
    "Latitude": 28.86623446
  },
  {
    "State": "Puerto Rico",
    "County": "Moca",
    "Longitude": -67.08090202,
    "Latitude": 18.37783653
  },
  {
    "State": "South Dakota",
    "County": "Douglas",
    "Longitude": -98.36606932,
    "Latitude": 43.38705519
  },
  {
    "State": "Colorado",
    "County": "Yuma",
    "Longitude": -102.4246098,
    "Latitude": 40.00284508
  },
  {
    "State": "Georgia",
    "County": "Franklin",
    "Longitude": -83.2291908,
    "Latitude": 34.37559112
  },
  {
    "State": "Kansas",
    "County": "Stevens",
    "Longitude": -101.3119048,
    "Latitude": 37.19230822
  },
  {
    "State": "Kentucky",
    "County": "Graves",
    "Longitude": -88.65114084,
    "Latitude": 36.72303717
  },
  {
    "State": "Pennsylvania",
    "County": "Adams",
    "Longitude": -77.21807609,
    "Latitude": 39.87146641
  },
  {
    "State": "South Dakota",
    "County": "Brown",
    "Longitude": -98.35163367,
    "Latitude": 45.58993475
  },
  {
    "State": "Mississippi",
    "County": "Monroe",
    "Longitude": -88.48037059,
    "Latitude": 33.8922846
  },
  {
    "State": "Missouri",
    "County": "Stone",
    "Longitude": -93.45602697,
    "Latitude": 36.74710976
  },
  {
    "State": "Minnesota",
    "County": "Faribault",
    "Longitude": -93.94781493,
    "Latitude": 43.67387282
  },
  {
    "State": "Alaska",
    "County": "Bethel",
    "Longitude": -159.8255997,
    "Latitude": 60.91342739
  },
  {
    "State": "Iowa",
    "County": "Montgomery",
    "Longitude": -95.15642896,
    "Latitude": 41.03018714
  },
  {
    "State": "Alabama",
    "County": "Chilton",
    "Longitude": -86.71887934,
    "Latitude": 32.84771004
  },
  {
    "State": "Nebraska",
    "County": "Blaine",
    "Longitude": -99.97677845,
    "Latitude": 41.91311716
  },
  {
    "State": "Ohio",
    "County": "Montgomery",
    "Longitude": -84.29037841,
    "Latitude": 39.75442102
  },
  {
    "State": "Ohio",
    "County": "Fayette",
    "Longitude": -83.4560853,
    "Latitude": 39.56023827
  },
  {
    "State": "Oklahoma",
    "County": "Kingfisher",
    "Longitude": -97.94153042,
    "Latitude": 35.94535722
  },
  {
    "State": "Indiana",
    "County": "Orange",
    "Longitude": -86.49522904,
    "Latitude": 38.5412136
  },
  {
    "State": "Iowa",
    "County": "Palo Alto",
    "Longitude": -94.67824621,
    "Latitude": 43.08193849
  },
  {
    "State": "Iowa",
    "County": "Crawford",
    "Longitude": -95.3819718,
    "Latitude": 42.03718237
  },
  {
    "State": "Illinois",
    "County": "Logan",
    "Longitude": -89.36775244,
    "Latitude": 40.12467469
  },
  {
    "State": "Michigan",
    "County": "Clare",
    "Longitude": -84.84810751,
    "Latitude": 43.9879198
  },
  {
    "State": "Indiana",
    "County": "Johnson",
    "Longitude": -86.10174496,
    "Latitude": 39.4899568
  },
  {
    "State": "Minnesota",
    "County": "Lyon",
    "Longitude": -95.83918761,
    "Latitude": 44.41338502
  },
  {
    "State": "Michigan",
    "County": "Wexford",
    "Longitude": -85.5781774,
    "Latitude": 44.33841768
  },
  {
    "State": "Wisconsin",
    "County": "Dodge",
    "Longitude": -88.70770995,
    "Latitude": 43.41581374
  },
  {
    "State": "Indiana",
    "County": "Ripley",
    "Longitude": -85.2624907,
    "Latitude": 39.10311351
  },
  {
    "State": "Indiana",
    "County": "Fayette",
    "Longitude": -85.17841116,
    "Latitude": 39.63983379
  },
  {
    "State": "Puerto Rico",
    "County": "Quebradillas",
    "Longitude": -66.92632992,
    "Latitude": 18.44045509
  },
  {
    "State": "Texas",
    "County": "Bastrop",
    "Longitude": -97.31201625,
    "Latitude": 30.10367452
  },
  {
    "State": "Virginia",
    "County": "Covington",
    "Longitude": -79.98671944,
    "Latitude": 37.77830014
  },
  {
    "State": "Virginia",
    "County": "Charlottesville",
    "Longitude": -78.48233004,
    "Latitude": 38.03742163
  },
  {
    "State": "Texas",
    "County": "Fayette",
    "Longitude": -96.91986981,
    "Latitude": 29.87663549
  },
  {
    "State": "Texas",
    "County": "Franklin",
    "Longitude": -95.21903806,
    "Latitude": 33.17532732
  },
  {
    "State": "South Dakota",
    "County": "Edmunds",
    "Longitude": -99.21540939,
    "Latitude": 45.41847898
  },
  {
    "State": "Arizona",
    "County": "La Paz",
    "Longitude": -113.981207,
    "Latitude": 33.7291609
  },
  {
    "State": "Idaho",
    "County": "Benewah",
    "Longitude": -116.6586207,
    "Latitude": 47.21772961
  },
  {
    "State": "Maryland",
    "County": "Baltimore",
    "Longitude": -76.61440436,
    "Latitude": 39.30522045
  },
  {
    "State": "Pennsylvania",
    "County": "Potter",
    "Longitude": -77.89566563,
    "Latitude": 41.74480517
  },
  {
    "State": "Tennessee",
    "County": "Hardeman",
    "Longitude": -88.99308826,
    "Latitude": 35.2067611
  },
  {
    "State": "Michigan",
    "County": "Branch",
    "Longitude": -85.05923475,
    "Latitude": 41.91588904
  },
  {
    "State": "Georgia",
    "County": "Lanier",
    "Longitude": -83.06330638,
    "Latitude": 31.03799605
  },
  {
    "State": "Iowa",
    "County": "Hancock",
    "Longitude": -93.73454884,
    "Latitude": 43.08178477
  },
  {
    "State": "Georgia",
    "County": "Jones",
    "Longitude": -83.56057299,
    "Latitude": 33.0254599
  },
  {
    "State": "New York",
    "County": "Tompkins",
    "Longitude": -76.47381763,
    "Latitude": 42.45222263
  },
  {
    "State": "New York",
    "County": "Madison",
    "Longitude": -75.66993538,
    "Latitude": 42.91279676
  },
  {
    "State": "Iowa",
    "County": "Buchanan",
    "Longitude": -91.83745828,
    "Latitude": 42.47108244
  },
  {
    "State": "Iowa",
    "County": "Mahaska",
    "Longitude": -92.64083907,
    "Latitude": 41.33521502
  },
  {
    "State": "Kansas",
    "County": "Coffey",
    "Longitude": -95.73407587,
    "Latitude": 38.23677253
  },
  {
    "State": "Iowa",
    "County": "Marion",
    "Longitude": -93.09934783,
    "Latitude": 41.33445101
  },
  {
    "State": "Illinois",
    "County": "Knox",
    "Longitude": -90.2133034,
    "Latitude": 40.93148779
  },
  {
    "State": "Missouri",
    "County": "Sullivan",
    "Longitude": -93.11159068,
    "Latitude": 40.21033053
  },
  {
    "State": "Minnesota",
    "County": "Mille Lacs",
    "Longitude": -93.62993103,
    "Latitude": 45.9373852
  },
  {
    "State": "Florida",
    "County": "Sumter",
    "Longitude": -82.08128977,
    "Latitude": 28.70520781
  },
  {
    "State": "Iowa",
    "County": "Wapello",
    "Longitude": -92.40954728,
    "Latitude": 41.03064984
  },
  {
    "State": "Idaho",
    "County": "Valley",
    "Longitude": -115.5662454,
    "Latitude": 44.76650867
  },
  {
    "State": "Mississippi",
    "County": "Forrest",
    "Longitude": -89.25794407,
    "Latitude": 31.18899065
  },
  {
    "State": "Illinois",
    "County": "Jasper",
    "Longitude": -88.15377894,
    "Latitude": 39.01061641
  },
  {
    "State": "South Dakota",
    "County": "Jerauld",
    "Longitude": -98.62965972,
    "Latitude": 44.06637798
  },
  {
    "State": "Wisconsin",
    "County": "Wood",
    "Longitude": -90.0416185,
    "Latitude": 44.45535331
  },
  {
    "State": "Texas",
    "County": "Hutchinson",
    "Longitude": -101.3546643,
    "Latitude": 35.84006574
  },
  {
    "State": "Puerto Rico",
    "County": "Guayanilla",
    "Longitude": -66.79209227,
    "Latitude": 18.03985751
  },
  {
    "State": "Texas",
    "County": "Kerr",
    "Longitude": -99.34928454,
    "Latitude": 30.06116361
  },
  {
    "State": "North Dakota",
    "County": "Foster",
    "Longitude": -98.88279923,
    "Latitude": 47.4571084
  },
  {
    "State": "Texas",
    "County": "Somervell",
    "Longitude": -97.77458843,
    "Latitude": 32.22235362
  },
  {
    "State": "Texas",
    "County": "Hartley",
    "Longitude": -102.6029352,
    "Latitude": 35.84008345
  },
  {
    "State": "Texas",
    "County": "Cochran",
    "Longitude": -102.8285179,
    "Latitude": 33.60426094
  },
  {
    "State": "Texas",
    "County": "Duval",
    "Longitude": -98.50873333,
    "Latitude": 27.68142846
  },
  {
    "State": "Texas",
    "County": "Falls",
    "Longitude": -96.93634455,
    "Latitude": 31.25354356
  },
  {
    "State": "Minnesota",
    "County": "Carver",
    "Longitude": -93.8027205,
    "Latitude": 44.82089558
  },
  {
    "State": "South Dakota",
    "County": "Turner",
    "Longitude": -97.14865776,
    "Latitude": 43.3109081
  },
  {
    "State": "Mississippi",
    "County": "Lee",
    "Longitude": -88.68047663,
    "Latitude": 34.28973933
  },
  {
    "State": "Nebraska",
    "County": "Rock",
    "Longitude": -99.44982378,
    "Latitude": 42.42142393
  },
  {
    "State": "Virginia",
    "County": "Emporia",
    "Longitude": -77.53622483,
    "Latitude": 36.69543863
  },
  {
    "State": "Indiana",
    "County": "Fountain",
    "Longitude": -87.24192118,
    "Latitude": 40.12120145
  },
  {
    "State": "Puerto Rico",
    "County": "Humacao",
    "Longitude": -65.81103116,
    "Latitude": 18.14521821
  },
  {
    "State": "North Dakota",
    "County": "Burke",
    "Longitude": -102.5181759,
    "Latitude": 48.79096757
  },
  {
    "State": "Texas",
    "County": "Potter",
    "Longitude": -101.893964,
    "Latitude": 35.40133773
  },
  {
    "State": "Indiana",
    "County": "Marshall",
    "Longitude": -86.26180055,
    "Latitude": 41.3248735
  },
  {
    "State": "Tennessee",
    "County": "Cannon",
    "Longitude": -86.06179619,
    "Latitude": 35.80842943
  },
  {
    "State": "Indiana",
    "County": "Noble",
    "Longitude": -85.41741162,
    "Latitude": 41.39835527
  },
  {
    "State": "Texas",
    "County": "Castro",
    "Longitude": -102.2617081,
    "Latitude": 34.53004051
  },
  {
    "State": "North Carolina",
    "County": "Anson",
    "Longitude": -80.10243931,
    "Latitude": 34.97378348
  },
  {
    "State": "Iowa",
    "County": "Monroe",
    "Longitude": -92.8690667,
    "Latitude": 41.02988815
  },
  {
    "State": "California",
    "County": "Amador",
    "Longitude": -120.651296,
    "Latitude": 38.44638702
  },
  {
    "State": "Idaho",
    "County": "Lemhi",
    "Longitude": -113.9335998,
    "Latitude": 44.9436279
  },
  {
    "State": "Iowa",
    "County": "O'Brien",
    "Longitude": -95.62474725,
    "Latitude": 43.0836202
  },
  {
    "State": "Idaho",
    "County": "Payette",
    "Longitude": -116.7604309,
    "Latitude": 44.00714137
  },
  {
    "State": "Illinois",
    "County": "Macon",
    "Longitude": -88.96174804,
    "Latitude": 39.85999062
  },
  {
    "State": "Illinois",
    "County": "Macoupin",
    "Longitude": -89.92459485,
    "Latitude": 39.26136043
  },
  {
    "State": "North Carolina",
    "County": "Wilson",
    "Longitude": -77.9189122,
    "Latitude": 35.70531169
  },
  {
    "State": "Illinois",
    "County": "Marshall",
    "Longitude": -89.34481931,
    "Latitude": 41.03327407
  },
  {
    "State": "Iowa",
    "County": "Adams",
    "Longitude": -94.69932645,
    "Latitude": 41.02903567
  },
  {
    "State": "West Virginia",
    "County": "Preston",
    "Longitude": -79.6682145,
    "Latitude": 39.46929522
  },
  {
    "State": "Iowa",
    "County": "Benton",
    "Longitude": -92.06463573,
    "Latitude": 42.08011739
  },
  {
    "State": "Tennessee",
    "County": "Chester",
    "Longitude": -88.61425832,
    "Latitude": 35.42206909
  },
  {
    "State": "Wyoming",
    "County": "Niobrara",
    "Longitude": -104.4755961,
    "Latitude": 43.05616954
  },
  {
    "State": "Virginia",
    "County": "Henry",
    "Longitude": -79.87418576,
    "Latitude": 36.68267428
  },
  {
    "State": "Wisconsin",
    "County": "Washington",
    "Longitude": -88.23041319,
    "Latitude": 43.36887792
  },
  {
    "State": "Montana",
    "County": "Petroleum",
    "Longitude": -108.2504732,
    "Latitude": 47.11768458
  },
  {
    "State": "Minnesota",
    "County": "Pipestone",
    "Longitude": -96.258643,
    "Latitude": 44.02300689
  },
  {
    "State": "Virginia",
    "County": "King George",
    "Longitude": -77.15723124,
    "Latitude": 38.27358126
  },
  {
    "State": "Minnesota",
    "County": "Cook",
    "Longitude": -90.53150846,
    "Latitude": 47.90304185
  },
  {
    "State": "Pennsylvania",
    "County": "Elk",
    "Longitude": -78.64916765,
    "Latitude": 41.42548728
  },
  {
    "State": "Minnesota",
    "County": "Steele",
    "Longitude": -93.22627088,
    "Latitude": 44.02240351
  },
  {
    "State": "Minnesota",
    "County": "Todd",
    "Longitude": -94.89728962,
    "Latitude": 46.07014445
  },
  {
    "State": "Missouri",
    "County": "Dade",
    "Longitude": -93.8503345,
    "Latitude": 37.431814
  },
  {
    "State": "Pennsylvania",
    "County": "Forest",
    "Longitude": -79.23591856,
    "Latitude": 41.51230258
  },
  {
    "State": "Tennessee",
    "County": "Anderson",
    "Longitude": -84.19904346,
    "Latitude": 36.11862903
  },
  {
    "State": "Idaho",
    "County": "Elmore",
    "Longitude": -115.4691486,
    "Latitude": 43.35417471
  },
  {
    "State": "Kansas",
    "County": "Ford",
    "Longitude": -99.88814767,
    "Latitude": 37.69182131
  },
  {
    "State": "Kansas",
    "County": "Kearny",
    "Longitude": -101.3203923,
    "Latitude": 38.00024973
  },
  {
    "State": "Georgia",
    "County": "Rockdale",
    "Longitude": -84.02657025,
    "Latitude": 33.65414105
  },
  {
    "State": "Nebraska",
    "County": "Dawes",
    "Longitude": -103.1354423,
    "Latitude": 42.72007965
  },
  {
    "State": "Oregon",
    "County": "Marion",
    "Longitude": -122.5849114,
    "Latitude": 44.90322354
  },
  {
    "State": "Texas",
    "County": "Dallam",
    "Longitude": -102.6021107,
    "Latitude": 36.27789187
  },
  {
    "State": "Indiana",
    "County": "Shelby",
    "Longitude": -85.79146519,
    "Latitude": 39.52312646
  },
  {
    "State": "Pennsylvania",
    "County": "Luzerne",
    "Longitude": -75.98893638,
    "Latitude": 41.17686973
  },
  {
    "State": "Missouri",
    "County": "Livingston",
    "Longitude": -93.54864835,
    "Latitude": 39.78202789
  },
  {
    "State": "Missouri",
    "County": "Maries",
    "Longitude": -91.92492582,
    "Latitude": 38.16167922
  },
  {
    "State": "Minnesota",
    "County": "Waseca",
    "Longitude": -93.58720505,
    "Latitude": 44.0220714
  },
  {
    "State": "Alabama",
    "County": "Randolph",
    "Longitude": -85.45918107,
    "Latitude": 33.29354361
  },
  {
    "State": "Michigan",
    "County": "Roscommon",
    "Longitude": -84.61141537,
    "Latitude": 44.33547916
  },
  {
    "State": "New York",
    "County": "Bronx",
    "Longitude": -73.8615688,
    "Latitude": 40.85091824
  },
  {
    "State": "Nebraska",
    "County": "Hayes",
    "Longitude": -101.0616334,
    "Latitude": 40.52447865
  },
  {
    "State": "Nebraska",
    "County": "Madison",
    "Longitude": -97.60078361,
    "Latitude": 41.9166434
  },
  {
    "State": "North Dakota",
    "County": "Dickey",
    "Longitude": -98.50488391,
    "Latitude": 46.11017237
  },
  {
    "State": "Missouri",
    "County": "Lawrence",
    "Longitude": -93.83291444,
    "Latitude": 37.10627971
  },
  {
    "State": "Michigan",
    "County": "Barry",
    "Longitude": -85.30834519,
    "Latitude": 42.59513984
  },
  {
    "State": "Wisconsin",
    "County": "Kenosha",
    "Longitude": -88.04209555,
    "Latitude": 42.57659172
  },
  {
    "State": "Missouri",
    "County": "Morgan",
    "Longitude": -92.88597122,
    "Latitude": 38.42350791
  },
  {
    "State": "Michigan",
    "County": "Isabella",
    "Longitude": -84.84664923,
    "Latitude": 43.64060976
  },
  {
    "State": "Arkansas",
    "County": "Craighead",
    "Longitude": -90.63270647,
    "Latitude": 35.8310138
  },
  {
    "State": "Alaska",
    "County": "Petersburg",
    "Longitude": -132.9333517,
    "Latitude": 57.11988808
  },
  {
    "State": "Alaska",
    "County": "Wrangell",
    "Longitude": -132.0310434,
    "Latitude": 56.32537949
  },
  {
    "State": "Nebraska",
    "County": "Stanton",
    "Longitude": -97.19394708,
    "Latitude": 41.9169835
  },
  {
    "State": "New Mexico",
    "County": "San Miguel",
    "Longitude": -104.8156292,
    "Latitude": 35.48004639
  },
  {
    "State": "Pennsylvania",
    "County": "Sullivan",
    "Longitude": -76.51238042,
    "Latitude": 41.44598276
  },
  {
    "State": "Michigan",
    "County": "Menominee",
    "Longitude": -87.55660994,
    "Latitude": 45.58036988
  },
  {
    "State": "Ohio",
    "County": "Knox",
    "Longitude": -82.42287375,
    "Latitude": 40.39902351
  },
  {
    "State": "Ohio",
    "County": "Licking",
    "Longitude": -82.48290477,
    "Latitude": 40.09170112
  },
  {
    "State": "North Dakota",
    "County": "Ransom",
    "Longitude": -97.65742504,
    "Latitude": 46.45621782
  },
  {
    "State": "Nebraska",
    "County": "Boone",
    "Longitude": -98.06703102,
    "Latitude": 41.7067951
  },
  {
    "State": "North Dakota",
    "County": "Wells",
    "Longitude": -99.66092922,
    "Latitude": 47.58750012
  },
  {
    "State": "Nebraska",
    "County": "Garden",
    "Longitude": -102.3353283,
    "Latitude": 41.61911486
  },
  {
    "State": "Texas",
    "County": "Hall",
    "Longitude": -100.6813647,
    "Latitude": 34.53073368
  },
  {
    "State": "Texas",
    "County": "Hamilton",
    "Longitude": -98.11083887,
    "Latitude": 31.70470573
  },
  {
    "State": "North Dakota",
    "County": "Kidder",
    "Longitude": -99.78013842,
    "Latitude": 46.98013909
  },
  {
    "State": "Iowa",
    "County": "Cerro Gordo",
    "Longitude": -93.2612239,
    "Latitude": 43.08177563
  },
  {
    "State": "Kentucky",
    "County": "Caldwell",
    "Longitude": -87.86831993,
    "Latitude": 37.14556161
  },
  {
    "State": "South Dakota",
    "County": "Clark",
    "Longitude": -97.72949102,
    "Latitude": 44.8584651
  },
  {
    "State": "South Dakota",
    "County": "Deuel",
    "Longitude": -96.66802862,
    "Latitude": 44.76015949
  },
  {
    "State": "South Dakota",
    "County": "Hutchinson",
    "Longitude": -97.75456287,
    "Latitude": 43.33466314
  },
  {
    "State": "South Dakota",
    "County": "Lake",
    "Longitude": -97.12926365,
    "Latitude": 44.02193107
  },
  {
    "State": "Pennsylvania",
    "County": "Cambria",
    "Longitude": -78.71388554,
    "Latitude": 40.49518786
  },
  {
    "State": "Texas",
    "County": "Baylor",
    "Longitude": -99.21352901,
    "Latitude": 33.61640794
  },
  {
    "State": "South Dakota",
    "County": "Fall River",
    "Longitude": -103.5274481,
    "Latitude": 43.23917478
  },
  {
    "State": "South Dakota",
    "County": "Hanson",
    "Longitude": -97.78704306,
    "Latitude": 43.67458361
  },
  {
    "State": "South Carolina",
    "County": "Edgefield",
    "Longitude": -81.9661657,
    "Latitude": 33.77224819
  },
  {
    "State": "South Dakota",
    "County": "Minnehaha",
    "Longitude": -96.7914546,
    "Latitude": 43.67413367
  },
  {
    "State": "Washington",
    "County": "Adams",
    "Longitude": -118.5603559,
    "Latitude": 46.98352425
  },
  {
    "State": "Pennsylvania",
    "County": "Columbia",
    "Longitude": -76.4051503,
    "Latitude": 41.04903639
  },
  {
    "State": "Missouri",
    "County": "Hickory",
    "Longitude": -93.32051495,
    "Latitude": 37.94153217
  },
  {
    "State": "Wisconsin",
    "County": "Lincoln",
    "Longitude": -89.73474025,
    "Latitude": 45.33724242
  },
  {
    "State": "Virginia",
    "County": "Albemarle",
    "Longitude": -78.55661903,
    "Latitude": 38.02273165
  },
  {
    "State": "Nebraska",
    "County": "Antelope",
    "Longitude": -98.06660249,
    "Latitude": 42.17696571
  },
  {
    "State": "Wisconsin",
    "County": "Ozaukee",
    "Longitude": -87.95138777,
    "Latitude": 43.38375913
  },
  {
    "State": "Missouri",
    "County": "Barry",
    "Longitude": -93.82898627,
    "Latitude": 36.70980207
  },
  {
    "State": "Wisconsin",
    "County": "Portage",
    "Longitude": -89.50154548,
    "Latitude": 44.47561378
  },
  {
    "State": "Texas",
    "County": "Brooks",
    "Longitude": -98.21866528,
    "Latitude": 27.03154713
  },
  {
    "State": "Wisconsin",
    "County": "Dunn",
    "Longitude": -91.89653391,
    "Latitude": 44.94674851
  },
  {
    "State": "Wisconsin",
    "County": "Sheboygan",
    "Longitude": -87.94566398,
    "Latitude": 43.72108736
  },
  {
    "State": "North Carolina",
    "County": "Randolph",
    "Longitude": -79.8058818,
    "Latitude": 35.71023333
  },
  {
    "State": "Kansas",
    "County": "Wallace",
    "Longitude": -101.7637347,
    "Latitude": 38.91690628
  },
  {
    "State": "Kansas",
    "County": "Bourbon",
    "Longitude": -94.84924767,
    "Latitude": 37.85500237
  },
  {
    "State": "Texas",
    "County": "Comanche",
    "Longitude": -98.55874953,
    "Latitude": 31.94854859
  },
  {
    "State": "Texas",
    "County": "Crane",
    "Longitude": -102.5151699,
    "Latitude": 31.4287137
  },
  {
    "State": "Michigan",
    "County": "Clinton",
    "Longitude": -84.60138451,
    "Latitude": 42.9439517
  },
  {
    "State": "Illinois",
    "County": "Coles",
    "Longitude": -88.22141023,
    "Latitude": 39.52086003
  },
  {
    "State": "Iowa",
    "County": "Guthrie",
    "Longitude": -94.50111014,
    "Latitude": 41.68378965
  },
  {
    "State": "Illinois",
    "County": "DeKalb",
    "Longitude": -88.76979995,
    "Latitude": 41.8933691
  },
  {
    "State": "Illinois",
    "County": "Douglas",
    "Longitude": -88.21756136,
    "Latitude": 39.7695478
  },
  {
    "State": "Kansas",
    "County": "Marion",
    "Longitude": -97.09712874,
    "Latitude": 38.35899873
  },
  {
    "State": "Kentucky",
    "County": "Lee",
    "Longitude": -83.71573518,
    "Latitude": 37.59456493
  },
  {
    "State": "Texas",
    "County": "DeWitt",
    "Longitude": -97.35694033,
    "Latitude": 29.08147376
  },
  {
    "State": "Michigan",
    "County": "Kalamazoo",
    "Longitude": -85.53044157,
    "Latitude": 42.24536002
  },
  {
    "State": "Kentucky",
    "County": "Marshall",
    "Longitude": -88.32927113,
    "Latitude": 36.88327592
  },
  {
    "State": "Michigan",
    "County": "Kent",
    "Longitude": -85.54918115,
    "Latitude": 43.03204611
  },
  {
    "State": "Kentucky",
    "County": "Montgomery",
    "Longitude": -83.91291351,
    "Latitude": 38.03256472
  },
  {
    "State": "Michigan",
    "County": "Mecosta",
    "Longitude": -85.32464875,
    "Latitude": 43.64070731
  },
  {
    "State": "Michigan",
    "County": "Montcalm",
    "Longitude": -85.15230226,
    "Latitude": 43.31058414
  },
  {
    "State": "Kentucky",
    "County": "Nicholas",
    "Longitude": -84.01542795,
    "Latitude": 38.33536589
  },
  {
    "State": "Minnesota",
    "County": "Freeborn",
    "Longitude": -93.3488462,
    "Latitude": 43.67383179
  },
  {
    "State": "Michigan",
    "County": "Osceola",
    "Longitude": -85.32556471,
    "Latitude": 43.98998373
  },
  {
    "State": "Illinois",
    "County": "Effingham",
    "Longitude": -88.58969703,
    "Latitude": 39.05935691
  },
  {
    "State": "Illinois",
    "County": "Ford",
    "Longitude": -88.22313426,
    "Latitude": 40.59686492
  },
  {
    "State": "Illinois",
    "County": "Edwards",
    "Longitude": -88.05369238,
    "Latitude": 38.41619684
  },
  {
    "State": "Kentucky",
    "County": "Webster",
    "Longitude": -87.68319621,
    "Latitude": 37.51850288
  },
  {
    "State": "Texas",
    "County": "Lubbock",
    "Longitude": -101.8204789,
    "Latitude": 33.61008596
  },
  {
    "State": "Oklahoma",
    "County": "Dewey",
    "Longitude": -99.00647121,
    "Latitude": 35.98768882
  },
  {
    "State": "Texas",
    "County": "Navarro",
    "Longitude": -96.47280759,
    "Latitude": 32.04696933
  },
  {
    "State": "Iowa",
    "County": "Cherokee",
    "Longitude": -95.62389402,
    "Latitude": 42.73538914
  },
  {
    "State": "Iowa",
    "County": "Bremer",
    "Longitude": -92.31795937,
    "Latitude": 42.77461496
  },
  {
    "State": "Minnesota",
    "County": "Meeker",
    "Longitude": -94.52871063,
    "Latitude": 45.12332877
  },
  {
    "State": "Texas",
    "County": "Hockley",
    "Longitude": -102.3431676,
    "Latitude": 33.60771256
  },
  {
    "State": "Oklahoma",
    "County": "Nowata",
    "Longitude": -95.61735986,
    "Latitude": 36.79844119
  },
  {
    "State": "Ohio",
    "County": "Allen",
    "Longitude": -84.10584177,
    "Latitude": 40.77151716
  },
  {
    "State": "Minnesota",
    "County": "Isanti",
    "Longitude": -93.29470209,
    "Latitude": 45.56125565
  },
  {
    "State": "Texas",
    "County": "Schleicher",
    "Longitude": -100.5384877,
    "Latitude": 30.89734895
  },
  {
    "State": "Minnesota",
    "County": "Watonwan",
    "Longitude": -94.61413846,
    "Latitude": 43.97823903
  },
  {
    "State": "Texas",
    "County": "Stephens",
    "Longitude": -98.83631615,
    "Latitude": 32.73553157
  },
  {
    "State": "New York",
    "County": "Columbia",
    "Longitude": -73.63186276,
    "Latitude": 42.25016297
  },
  {
    "State": "New Jersey",
    "County": "Middlesex",
    "Longitude": -74.41108832,
    "Latitude": 40.43949114
  },
  {
    "State": "Minnesota",
    "County": "Pope",
    "Longitude": -95.44454861,
    "Latitude": 45.58611957
  },
  {
    "State": "Texas",
    "County": "Motley",
    "Longitude": -100.779722,
    "Latitude": 34.07408766
  },
  {
    "State": "Missouri",
    "County": "Linn",
    "Longitude": -93.10705251,
    "Latitude": 39.870461
  },
  {
    "State": "California",
    "County": "San Bernardino",
    "Longitude": -116.1783784,
    "Latitude": 34.84157876
  },
  {
    "State": "Georgia",
    "County": "Laurens",
    "Longitude": -82.92233434,
    "Latitude": 32.46355824
  },
  {
    "State": "Georgia",
    "County": "Greene",
    "Longitude": -83.16678441,
    "Latitude": 33.57887215
  },
  {
    "State": "Arkansas",
    "County": "St. Francis",
    "Longitude": -90.74840472,
    "Latitude": 35.02180511
  },
  {
    "State": "Wisconsin",
    "County": "Oneida",
    "Longitude": -89.52161421,
    "Latitude": 45.70521979
  },
  {
    "State": "Wisconsin",
    "County": "Sawyer",
    "Longitude": -91.14489019,
    "Latitude": 45.87995292
  },
  {
    "State": "Alaska",
    "County": "Valdez-Cordova",
    "Longitude": -144.5019516,
    "Latitude": 61.54964404
  },
  {
    "State": "South Dakota",
    "County": "Davison",
    "Longitude": -98.14543668,
    "Latitude": 43.67475843
  },
  {
    "State": "Minnesota",
    "County": "St. Louis",
    "Longitude": -92.46951183,
    "Latitude": 47.60334656
  },
  {
    "State": "Florida",
    "County": "Gilchrist",
    "Longitude": -82.80043459,
    "Latitude": 29.72600841
  },
  {
    "State": "Ohio",
    "County": "Portage",
    "Longitude": -81.19736816,
    "Latitude": 41.16790847
  },
  {
    "State": "Missouri",
    "County": "Daviess",
    "Longitude": -93.98514508,
    "Latitude": 39.96169076
  },
  {
    "State": "Missouri",
    "County": "Grundy",
    "Longitude": -93.56516333,
    "Latitude": 40.1140924
  },
  {
    "State": "Texas",
    "County": "Brown",
    "Longitude": -98.99881071,
    "Latitude": 31.77417703
  },
  {
    "State": "Texas",
    "County": "Hays",
    "Longitude": -98.03105783,
    "Latitude": 30.05810528
  },
  {
    "State": "Texas",
    "County": "Irion",
    "Longitude": -100.982439,
    "Latitude": 31.30375559
  },
  {
    "State": "Texas",
    "County": "Lampasas",
    "Longitude": -98.2416756,
    "Latitude": 31.19624807
  },
  {
    "State": "Washington",
    "County": "Okanogan",
    "Longitude": -119.7406032,
    "Latitude": 48.54862984
  },
  {
    "State": "Georgia",
    "County": "Ben Hill",
    "Longitude": -83.22027638,
    "Latitude": 31.75972075
  },
  {
    "State": "Georgia",
    "County": "Tift",
    "Longitude": -83.52652261,
    "Latitude": 31.45751029
  },
  {
    "State": "Georgia",
    "County": "Clinch",
    "Longitude": -82.7064204,
    "Latitude": 30.91504263
  },
  {
    "State": "Virginia",
    "County": "Colonial Heights",
    "Longitude": -77.39716266,
    "Latitude": 37.26480119
  },
  {
    "State": "North Carolina",
    "County": "Guilford",
    "Longitude": -79.78852575,
    "Latitude": 36.07964464
  },
  {
    "State": "Missouri",
    "County": "Ray",
    "Longitude": -93.98990821,
    "Latitude": 39.35287295
  },
  {
    "State": "Virginia",
    "County": "Galax",
    "Longitude": -80.91646065,
    "Latitude": 36.66735897
  },
  {
    "State": "Virginia",
    "County": "Hopewell",
    "Longitude": -77.2969381,
    "Latitude": 37.29122918
  },
  {
    "State": "Virginia",
    "County": "Manassas Park",
    "Longitude": -77.44401094,
    "Latitude": 38.7704423
  },
  {
    "State": "Kansas",
    "County": "Sedgwick",
    "Longitude": -97.46083703,
    "Latitude": 37.68448116
  },
  {
    "State": "California",
    "County": "Monterey",
    "Longitude": -121.2387503,
    "Latitude": 36.21711865
  },
  {
    "State": "Iowa",
    "County": "Black Hawk",
    "Longitude": -92.30867416,
    "Latitude": 42.47009403
  },
  {
    "State": "Kansas",
    "County": "Cheyenne",
    "Longitude": -101.7318625,
    "Latitude": 39.78580547
  },
  {
    "State": "Florida",
    "County": "DeSoto",
    "Longitude": -81.80959835,
    "Latitude": 27.18691656
  },
  {
    "State": "Illinois",
    "County": "Morgan",
    "Longitude": -90.20121837,
    "Latitude": 39.71580417
  },
  {
    "State": "Colorado",
    "County": "Garfield",
    "Longitude": -107.9036205,
    "Latitude": 39.59941978
  },
  {
    "State": "Texas",
    "County": "Jack",
    "Longitude": -98.17283469,
    "Latitude": 33.23377248
  },
  {
    "State": "Missouri",
    "County": "Wright",
    "Longitude": -92.4694931,
    "Latitude": 37.27078998
  },
  {
    "State": "Florida",
    "County": "St. Lucie",
    "Longitude": -80.47111892,
    "Latitude": 27.377528
  },
  {
    "State": "Kansas",
    "County": "Labette",
    "Longitude": -95.29765463,
    "Latitude": 37.19127872
  },
  {
    "State": "Oklahoma",
    "County": "Delaware",
    "Longitude": -94.80256963,
    "Latitude": 36.4089821
  },
  {
    "State": "Alabama",
    "County": "Macon",
    "Longitude": -85.69260703,
    "Latitude": 32.38585029
  },
  {
    "State": "Colorado",
    "County": "Jackson",
    "Longitude": -106.3427076,
    "Latitude": 40.66623861
  },
  {
    "State": "Alabama",
    "County": "Geneva",
    "Longitude": -85.83932953,
    "Latitude": 31.09486905
  },
  {
    "State": "Georgia",
    "County": "Bleckley",
    "Longitude": -83.32769512,
    "Latitude": 32.43444176
  },
  {
    "State": "Kansas",
    "County": "Miami",
    "Longitude": -94.83822279,
    "Latitude": 38.56363954
  },
  {
    "State": "Illinois",
    "County": "McDonough",
    "Longitude": -90.67775541,
    "Latitude": 40.45674722
  },
  {
    "State": "Texas",
    "County": "La Salle",
    "Longitude": -99.0992434,
    "Latitude": 28.34445432
  },
  {
    "State": "Georgia",
    "County": "Bryan",
    "Longitude": -81.44364706,
    "Latitude": 32.0140721
  },
  {
    "State": "Kansas",
    "County": "Logan",
    "Longitude": -101.148475,
    "Latitude": 38.91735806
  },
  {
    "State": "Illinois",
    "County": "Marion",
    "Longitude": -88.91900564,
    "Latitude": 38.64962591
  },
  {
    "State": "Texas",
    "County": "McMullen",
    "Longitude": -98.567849,
    "Latitude": 28.35261097
  },
  {
    "State": "Ohio",
    "County": "Muskingum",
    "Longitude": -81.94452332,
    "Latitude": 39.96581387
  },
  {
    "State": "Colorado",
    "County": "Phillips",
    "Longitude": -102.3573987,
    "Latitude": 40.59394842
  },
  {
    "State": "Kansas",
    "County": "Thomas",
    "Longitude": -101.0553705,
    "Latitude": 39.35107575
  },
  {
    "State": "Texas",
    "County": "Parker",
    "Longitude": -97.80496943,
    "Latitude": 32.77760907
  },
  {
    "State": "Colorado",
    "County": "Rio Blanco",
    "Longitude": -108.2172628,
    "Latitude": 39.97993245
  },
  {
    "State": "Colorado",
    "County": "Rio Grande",
    "Longitude": -106.3829289,
    "Latitude": 37.58223621
  },
  {
    "State": "Ohio",
    "County": "Putnam",
    "Longitude": -84.13168547,
    "Latitude": 41.02216769
  },
  {
    "State": "Illinois",
    "County": "Stark",
    "Longitude": -89.79757636,
    "Latitude": 41.09327074
  },
  {
    "State": "Ohio",
    "County": "Richland",
    "Longitude": -82.53676639,
    "Latitude": 40.77482478
  },
  {
    "State": "Texas",
    "County": "Roberts",
    "Longitude": -100.813175,
    "Latitude": 35.83809685
  },
  {
    "State": "Texas",
    "County": "Runnels",
    "Longitude": -99.97616148,
    "Latitude": 31.8314342
  },
  {
    "State": "Kentucky",
    "County": "Warren",
    "Longitude": -86.42358976,
    "Latitude": 36.9932296
  },
  {
    "State": "Texas",
    "County": "Sherman",
    "Longitude": -101.8933684,
    "Latitude": 36.27765456
  },
  {
    "State": "Georgia",
    "County": "Evans",
    "Longitude": -81.88687929,
    "Latitude": 32.1569194
  },
  {
    "State": "Iowa",
    "County": "Keokuk",
    "Longitude": -92.1785067,
    "Latitude": 41.33649833
  },
  {
    "State": "Illinois",
    "County": "Williamson",
    "Longitude": -88.93009646,
    "Latitude": 37.73040742
  },
  {
    "State": "Florida",
    "County": "Broward",
    "Longitude": -80.48723143,
    "Latitude": 26.15220703
  },
  {
    "State": "Georgia",
    "County": "Lamar",
    "Longitude": -84.13960587,
    "Latitude": 33.07619286
  },
  {
    "State": "Ohio",
    "County": "Crawford",
    "Longitude": -82.91997484,
    "Latitude": 40.85061678
  },
  {
    "State": "Georgia",
    "County": "Madison",
    "Longitude": -83.20833143,
    "Latitude": 34.12798628
  },
  {
    "State": "Ohio",
    "County": "Hocking",
    "Longitude": -82.47907934,
    "Latitude": 39.49712923
  },
  {
    "State": "Ohio",
    "County": "Clinton",
    "Longitude": -83.80825529,
    "Latitude": 39.41489655
  },
  {
    "State": "Ohio",
    "County": "Coshocton",
    "Longitude": -81.91980212,
    "Latitude": 40.30215268
  },
  {
    "State": "Texas",
    "County": "Armstrong",
    "Longitude": -101.3574874,
    "Latitude": 34.96507426
  },
  {
    "State": "Ohio",
    "County": "Delaware",
    "Longitude": -83.00450275,
    "Latitude": 40.27841348
  },
  {
    "State": "Texas",
    "County": "Blanco",
    "Longitude": -98.3999852,
    "Latitude": 30.26640707
  },
  {
    "State": "Virginia",
    "County": "Norton",
    "Longitude": -82.62648895,
    "Latitude": 36.9310873
  },
  {
    "State": "Virginia",
    "County": "Williamsburg",
    "Longitude": -76.70721344,
    "Latitude": 37.26927809
  },
  {
    "State": "Missouri",
    "County": "Douglas",
    "Longitude": -92.49898814,
    "Latitude": 36.93253661
  },
  {
    "State": "Texas",
    "County": "Martin",
    "Longitude": -101.9513518,
    "Latitude": 32.30600051
  },
  {
    "State": "Missouri",
    "County": "Iron",
    "Longitude": -90.77398853,
    "Latitude": 37.5553541
  },
  {
    "State": "Texas",
    "County": "Loving",
    "Longitude": -103.5798367,
    "Latitude": 31.8491553
  },
  {
    "State": "Texas",
    "County": "Borden",
    "Longitude": -101.4316509,
    "Latitude": 32.74363984
  },
  {
    "State": "Oklahoma",
    "County": "Comanche",
    "Longitude": -98.47164344,
    "Latitude": 34.6620099
  },
  {
    "State": "Colorado",
    "County": "Crowley",
    "Longitude": -103.7838298,
    "Latitude": 38.32685938
  },
  {
    "State": "Missouri",
    "County": "Shannon",
    "Longitude": -91.39993659,
    "Latitude": 37.15713986
  },
  {
    "State": "Texas",
    "County": "Sterling",
    "Longitude": -101.0500746,
    "Latitude": 31.82781912
  },
  {
    "State": "Texas",
    "County": "Upton",
    "Longitude": -102.0428877,
    "Latitude": 31.36864453
  },
  {
    "State": "Texas",
    "County": "Winkler",
    "Longitude": -103.048449,
    "Latitude": 31.85000039
  },
  {
    "State": "Texas",
    "County": "Jones",
    "Longitude": -99.87871324,
    "Latitude": 32.7400927
  },
  {
    "State": "Texas",
    "County": "Taylor",
    "Longitude": -99.88996827,
    "Latitude": 32.30175703
  },
  {
    "State": "Colorado",
    "County": "Teller",
    "Longitude": -105.1619203,
    "Latitude": 38.88227296
  },
  {
    "State": "Texas",
    "County": "Mitchell",
    "Longitude": -100.9212058,
    "Latitude": 32.30623474
  },
  {
    "State": "Texas",
    "County": "Callahan",
    "Longitude": -99.37326312,
    "Latitude": 32.29760619
  },
  {
    "State": "Oklahoma",
    "County": "Logan",
    "Longitude": -97.44308101,
    "Latitude": 35.91913897
  },
  {
    "State": "Oklahoma",
    "County": "Adair",
    "Longitude": -94.65863245,
    "Latitude": 35.88406262
  },
  {
    "State": "New York",
    "County": "Herkimer",
    "Longitude": -74.96255405,
    "Latitude": 43.41936241
  },
  {
    "State": "Texas",
    "County": "Van Zandt",
    "Longitude": -95.83674215,
    "Latitude": 32.56379892
  },
  {
    "State": "Oklahoma",
    "County": "Oklahoma",
    "Longitude": -97.4075036,
    "Latitude": 35.55141319
  },
  {
    "State": "Texas",
    "County": "Henderson",
    "Longitude": -95.85377795,
    "Latitude": 32.21224151
  },
  {
    "State": "New York",
    "County": "Broome",
    "Longitude": -75.8198592,
    "Latitude": 42.16037158
  },
  {
    "State": "Oklahoma",
    "County": "Atoka",
    "Longitude": -96.03794859,
    "Latitude": 34.37367259
  },
  {
    "State": "Texas",
    "County": "Walker",
    "Longitude": -95.57247928,
    "Latitude": 30.73883544
  },
  {
    "State": "Oklahoma",
    "County": "Coal",
    "Longitude": -96.29798747,
    "Latitude": 34.58840127
  },
  {
    "State": "Texas",
    "County": "Grimes",
    "Longitude": -95.98558082,
    "Latitude": 30.5437066
  },
  {
    "State": "Oklahoma",
    "County": "Pushmataha",
    "Longitude": -95.37595261,
    "Latitude": 34.41635817
  },
  {
    "State": "Alabama",
    "County": "Marengo",
    "Longitude": -87.78920946,
    "Latitude": 32.24794915
  },
  {
    "State": "Alabama",
    "County": "Lamar",
    "Longitude": -88.09715315,
    "Latitude": 33.77909349
  },
  {
    "State": "Arkansas",
    "County": "Ashley",
    "Longitude": -91.76814114,
    "Latitude": 33.19120398
  },
  {
    "State": "Missouri",
    "County": "DeKalb",
    "Longitude": -94.40452876,
    "Latitude": 39.89285656
  },
  {
    "State": "Virginia",
    "County": "Radford",
    "Longitude": -80.55838396,
    "Latitude": 37.12313924
  },
  {
    "State": "West Virginia",
    "County": "McDowell",
    "Longitude": -81.65416089,
    "Latitude": 37.378572
  },
  {
    "State": "Nebraska",
    "County": "Kearney",
    "Longitude": -98.94803186,
    "Latitude": 40.50675437
  },
  {
    "State": "West Virginia",
    "County": "Harrison",
    "Longitude": -80.37983086,
    "Latitude": 39.28363307
  },
  {
    "State": "Missouri",
    "County": "Clinton",
    "Longitude": -94.40468366,
    "Latitude": 39.60124265
  },
  {
    "State": "West Virginia",
    "County": "Braxton",
    "Longitude": -80.71925498,
    "Latitude": 38.70024736
  },
  {
    "State": "Puerto Rico",
    "County": "Aguas Buenas",
    "Longitude": -66.12607813,
    "Latitude": 18.25129795
  },
  {
    "State": "Puerto Rico",
    "County": "Camuy",
    "Longitude": -66.86018176,
    "Latitude": 18.41919751
  },
  {
    "State": "Puerto Rico",
    "County": "Ciales",
    "Longitude": -66.51671207,
    "Latitude": 18.29014773
  },
  {
    "State": "Mississippi",
    "County": "Covington",
    "Longitude": -89.55267845,
    "Latitude": 31.6331285
  },
  {
    "State": "Vermont",
    "County": "Lamoille",
    "Longitude": -72.641331,
    "Latitude": 44.60594136
  },
  {
    "State": "Mississippi",
    "County": "Kemper",
    "Longitude": -88.64097868,
    "Latitude": 32.75459457
  },
  {
    "State": "Wisconsin",
    "County": "Walworth",
    "Longitude": -88.54158045,
    "Latitude": 42.66848551
  },
  {
    "State": "Nevada",
    "County": "Pershing",
    "Longitude": -118.4047657,
    "Latitude": 40.43952288
  },
  {
    "State": "Nevada",
    "County": "Mineral",
    "Longitude": -118.4346446,
    "Latitude": 38.53880917
  },
  {
    "State": "Puerto Rico",
    "County": "Toa Baja",
    "Longitude": -66.21551546,
    "Latitude": 18.4313626
  },
  {
    "State": "Puerto Rico",
    "County": "Trujillo Alto",
    "Longitude": -65.9995301,
    "Latitude": 18.33693881
  },
  {
    "State": "Ohio",
    "County": "Brown",
    "Longitude": -83.86741596,
    "Latitude": 38.93410315
  },
  {
    "State": "Minnesota",
    "County": "Carlton",
    "Longitude": -92.67716012,
    "Latitude": 46.592321
  },
  {
    "State": "Florida",
    "County": "Clay",
    "Longitude": -81.85783045,
    "Latitude": 29.98317912
  },
  {
    "State": "Mississippi",
    "County": "Carroll",
    "Longitude": -89.92031051,
    "Latitude": 33.44884455
  },
  {
    "State": "North Dakota",
    "County": "Ward",
    "Longitude": -101.541865,
    "Latitude": 48.22179884
  },
  {
    "State": "Alaska",
    "County": "Northwest Arctic",
    "Longitude": -159.724644,
    "Latitude": 67.05555844
  },
  {
    "State": "North Dakota",
    "County": "Slope",
    "Longitude": -103.4602876,
    "Latitude": 46.4473194
  },
  {
    "State": "Kansas",
    "County": "Stafford",
    "Longitude": -98.71763136,
    "Latitude": 38.03102509
  },
  {
    "State": "Oregon",
    "County": "Gilliam",
    "Longitude": -120.210458,
    "Latitude": 45.37780558
  },
  {
    "State": "Michigan",
    "County": "Gladwin",
    "Longitude": -84.38860114,
    "Latitude": 43.99062122
  },
  {
    "State": "North Dakota",
    "County": "McHenry",
    "Longitude": -100.6362783,
    "Latitude": 48.23439818
  },
  {
    "State": "Iowa",
    "County": "Van Buren",
    "Longitude": -91.95043301,
    "Latitude": 40.75308722
  },
  {
    "State": "Kansas",
    "County": "Lincoln",
    "Longitude": -98.20749,
    "Latitude": 39.04547506
  },
  {
    "State": "Georgia",
    "County": "Bibb",
    "Longitude": -83.69682554,
    "Latitude": 32.80691473
  },
  {
    "State": "Michigan",
    "County": "Oakland",
    "Longitude": -83.38594391,
    "Latitude": 42.66090645
  },
  {
    "State": "Iowa",
    "County": "Audubon",
    "Longitude": -94.90581859,
    "Latitude": 41.6844628
  },
  {
    "State": "Indiana",
    "County": "Carroll",
    "Longitude": -86.5635188,
    "Latitude": 40.58306044
  },
  {
    "State": "Michigan",
    "County": "Oscoda",
    "Longitude": -84.12938765,
    "Latitude": 44.68170135
  },
  {
    "State": "Tennessee",
    "County": "Fayette",
    "Longitude": -89.41493045,
    "Latitude": 35.19709994
  },
  {
    "State": "Kansas",
    "County": "Russell",
    "Longitude": -98.76247878,
    "Latitude": 38.91467637
  },
  {
    "State": "Puerto Rico",
    "County": "San Germn",
    "Longitude": -67.03910309,
    "Latitude": 18.11192588
  },
  {
    "State": "Michigan",
    "County": "Lapeer",
    "Longitude": -83.22153148,
    "Latitude": 43.09052506
  },
  {
    "State": "Virginia",
    "County": "Chesapeake",
    "Longitude": -76.30244008,
    "Latitude": 36.67787032
  },
  {
    "State": "Puerto Rico",
    "County": "Aibonito",
    "Longitude": -66.26454838,
    "Latitude": 18.13045854
  },
  {
    "State": "Unknown",
    "County": "Western",
    "Longitude": -170.7703365,
    "Latitude": -14.3247379
  },
  {
    "State": "Indiana",
    "County": "Wells",
    "Longitude": -85.22119115,
    "Latitude": 40.72931843
  },
  {
    "State": "Kansas",
    "County": "Jackson",
    "Longitude": -95.79433878,
    "Latitude": 39.41641542
  },
  {
    "State": "Alaska",
    "County": "Southeast Fairbanks",
    "Longitude": -143.2069204,
    "Latitude": 63.87695823
  },
  {
    "State": "Iowa",
    "County": "Tama",
    "Longitude": -92.53266945,
    "Latitude": 42.07991767
  },
  {
    "State": "California",
    "County": "Tehama",
    "Longitude": -122.2338547,
    "Latitude": 40.12559985
  },
  {
    "State": "Indiana",
    "County": "Miami",
    "Longitude": -86.04523681,
    "Latitude": 40.76954805
  },
  {
    "State": "California",
    "County": "Tuolumne",
    "Longitude": -119.9551317,
    "Latitude": 38.02748982
  },
  {
    "State": "Indiana",
    "County": "Putnam",
    "Longitude": -86.84503425,
    "Latitude": 39.66633516
  },
  {
    "State": "Utah",
    "County": "Summit",
    "Longitude": -110.9558542,
    "Latitude": 40.86838131
  },
  {
    "State": "Illinois",
    "County": "Ogle",
    "Longitude": -89.32021067,
    "Latitude": 42.04257451
  },
  {
    "State": "California",
    "County": "Nevada",
    "Longitude": -120.7682923,
    "Latitude": 39.30150048
  },
  {
    "State": "Kansas",
    "County": "Clay",
    "Longitude": -97.16512523,
    "Latitude": 39.34944765
  },
  {
    "State": "Wisconsin",
    "County": "Marquette",
    "Longitude": -89.39896563,
    "Latitude": 43.81971333
  },
  {
    "State": "Wisconsin",
    "County": "Shawano",
    "Longitude": -88.76489325,
    "Latitude": 44.78886999
  },
  {
    "State": "Idaho",
    "County": "Idaho",
    "Longitude": -115.4671964,
    "Latitude": 45.84388002
  },
  {
    "State": "Idaho",
    "County": "Lewis",
    "Longitude": -116.4267621,
    "Latitude": 46.2366682
  },
  {
    "State": "Kansas",
    "County": "Lane",
    "Longitude": -100.4660754,
    "Latitude": 38.48119447
  },
  {
    "State": "North Dakota",
    "County": "Rolette",
    "Longitude": -99.84096449,
    "Latitude": 48.77247566
  },
  {
    "State": "Kansas",
    "County": "Ottawa",
    "Longitude": -97.65020313,
    "Latitude": 39.13237408
  },
  {
    "State": "Louisiana",
    "County": "Assumption",
    "Longitude": -91.06263132,
    "Latitude": 29.90081675
  },
  {
    "State": "New York",
    "County": "Lewis",
    "Longitude": -75.44886742,
    "Latitude": 43.78465035
  },
  {
    "State": "North Carolina",
    "County": "Camden",
    "Longitude": -76.20583468,
    "Latitude": 36.38675278
  },
  {
    "State": "Illinois",
    "County": "Lawrence",
    "Longitude": -87.72698819,
    "Latitude": 38.72048612
  },
  {
    "State": "Kansas",
    "County": "Meade",
    "Longitude": -100.3655617,
    "Latitude": 37.23826363
  },
  {
    "State": "Pennsylvania",
    "County": "Beaver",
    "Longitude": -80.34928676,
    "Latitude": 40.68241496
  },
  {
    "State": "Montana",
    "County": "Ravalli",
    "Longitude": -114.120145,
    "Latitude": 46.08166896
  },
  {
    "State": "Nebraska",
    "County": "Pawnee",
    "Longitude": -96.23706382,
    "Latitude": 40.13139323
  },
  {
    "State": "Nebraska",
    "County": "Jefferson",
    "Longitude": -97.14261379,
    "Latitude": 40.17580816
  },
  {
    "State": "Georgia",
    "County": "Baldwin",
    "Longitude": -83.24970322,
    "Latitude": 33.06940962
  },
  {
    "State": "Alaska",
    "County": "Ketchikan Gateway",
    "Longitude": -130.9369511,
    "Latitude": 55.58672276
  },
  {
    "State": "Texas",
    "County": "Yoakum",
    "Longitude": -102.8279472,
    "Latitude": 33.1730387
  },
  {
    "State": "Nebraska",
    "County": "Sherman",
    "Longitude": -98.97588642,
    "Latitude": 41.22045983
  },
  {
    "State": "Nebraska",
    "County": "Colfax",
    "Longitude": -97.086359,
    "Latitude": 41.57404386
  },
  {
    "State": "Pennsylvania",
    "County": "Carbon",
    "Longitude": -75.70851105,
    "Latitude": 40.91846484
  },
  {
    "State": "Ohio",
    "County": "Shelby",
    "Longitude": -84.20440063,
    "Latitude": 40.33212183
  },
  {
    "State": "Oklahoma",
    "County": "Creek",
    "Longitude": -96.37089402,
    "Latitude": 35.90233119
  },
  {
    "State": "Indiana",
    "County": "Hamilton",
    "Longitude": -86.05184193,
    "Latitude": 40.07229856
  },
  {
    "State": "Iowa",
    "County": "Humboldt",
    "Longitude": -94.20722537,
    "Latitude": 42.7764426
  },
  {
    "State": "Kansas",
    "County": "Morris",
    "Longitude": -96.64983521,
    "Latitude": 38.68742242
  },
  {
    "State": "Kansas",
    "County": "Trego",
    "Longitude": -99.87284448,
    "Latitude": 38.91467218
  },
  {
    "State": "Iowa",
    "County": "Boone",
    "Longitude": -93.93139995,
    "Latitude": 42.0366177
  },
  {
    "State": "Mississippi",
    "County": "Lawrence",
    "Longitude": -90.10693379,
    "Latitude": 31.54996744
  },
  {
    "State": "Illinois",
    "County": "Montgomery",
    "Longitude": -89.4790156,
    "Latitude": 39.23097041
  },
  {
    "State": "Missouri",
    "County": "Knox",
    "Longitude": -92.14789043,
    "Latitude": 40.12754125
  },
  {
    "State": "Indiana",
    "County": "Kosciusko",
    "Longitude": -85.86064998,
    "Latitude": 41.24435723
  },
  {
    "State": "Puerto Rico",
    "County": "Aasco",
    "Longitude": -67.12171471,
    "Latitude": 18.28872155
  },
  {
    "State": "Michigan",
    "County": "Berrien",
    "Longitude": -86.41252941,
    "Latitude": 41.95468812
  },
  {
    "State": "Michigan",
    "County": "Ionia",
    "Longitude": -85.07413319,
    "Latitude": 42.94502238
  },
  {
    "State": "Texas",
    "County": "Donley",
    "Longitude": -100.8140093,
    "Latitude": 34.96517499
  },
  {
    "State": "South Dakota",
    "County": "McCook",
    "Longitude": -97.36854569,
    "Latitude": 43.67426214
  },
  {
    "State": "Texas",
    "County": "Live Oak",
    "Longitude": -98.12498408,
    "Latitude": 28.35137771
  },
  {
    "State": "Tennessee",
    "County": "Madison",
    "Longitude": -88.83867386,
    "Latitude": 35.60806385
  },
  {
    "State": "Ohio",
    "County": "Fairfield",
    "Longitude": -82.63064275,
    "Latitude": 39.75164711
  },
  {
    "State": "North Dakota",
    "County": "Sheridan",
    "Longitude": -100.3455585,
    "Latitude": 47.5754264
  },
  {
    "State": "Ohio",
    "County": "Clark",
    "Longitude": -83.78354054,
    "Latitude": 39.91660044
  },
  {
    "State": "Arizona",
    "County": "Santa Cruz",
    "Longitude": -110.8466869,
    "Latitude": 31.52598116
  },
  {
    "State": "Georgia",
    "County": "Lee",
    "Longitude": -84.14092773,
    "Latitude": 31.77942972
  },
  {
    "State": "Kansas",
    "County": "Seward",
    "Longitude": -100.850601,
    "Latitude": 37.19327656
  },
  {
    "State": "Louisiana",
    "County": "Caddo",
    "Longitude": -93.88236667,
    "Latitude": 32.5802177
  },
  {
    "State": "Maine",
    "County": "Hancock",
    "Longitude": -68.35862848,
    "Latitude": 44.64373173
  },
  {
    "State": "Maryland",
    "County": "Caroline",
    "Longitude": -75.83180727,
    "Latitude": 38.87198968
  },
  {
    "State": "Ohio",
    "County": "Defiance",
    "Longitude": -84.49071987,
    "Latitude": 41.3239854
  },
  {
    "State": "Montana",
    "County": "Fallon",
    "Longitude": -104.417515,
    "Latitude": 46.3343054
  },
  {
    "State": "Minnesota",
    "County": "Jackson",
    "Longitude": -95.15400031,
    "Latitude": 43.67418723
  },
  {
    "State": "Mississippi",
    "County": "Scott",
    "Longitude": -89.53789439,
    "Latitude": 32.4067041
  },
  {
    "State": "Colorado",
    "County": "Alamosa",
    "Longitude": -105.788359,
    "Latitude": 37.57261807
  },
  {
    "State": "Florida",
    "County": "Okaloosa",
    "Longitude": -86.59219666,
    "Latitude": 30.69101554
  },
  {
    "State": "Florida",
    "County": "Seminole",
    "Longitude": -81.23634611,
    "Latitude": 28.71682625
  },
  {
    "State": "Georgia",
    "County": "Dade",
    "Longitude": -85.50458952,
    "Latitude": 34.85458429
  },
  {
    "State": "Mississippi",
    "County": "Amite",
    "Longitude": -90.80453378,
    "Latitude": 31.17425244
  },
  {
    "State": "Mississippi",
    "County": "Clarke",
    "Longitude": -88.68928948,
    "Latitude": 32.04139674
  },
  {
    "State": "South Dakota",
    "County": "Faulk",
    "Longitude": -99.14535601,
    "Latitude": 45.07082625
  },
  {
    "State": "Georgia",
    "County": "Grady",
    "Longitude": -84.23475065,
    "Latitude": 30.87476853
  },
  {
    "State": "Puerto Rico",
    "County": "Rincn",
    "Longitude": -67.23189285,
    "Latitude": 18.33498528
  },
  {
    "State": "Minnesota",
    "County": "Otter Tail",
    "Longitude": -95.70748857,
    "Latitude": 46.4090783
  },
  {
    "State": "Mississippi",
    "County": "Itawamba",
    "Longitude": -88.36140611,
    "Latitude": 34.27995113
  },
  {
    "State": "Illinois",
    "County": "Gallatin",
    "Longitude": -88.23082016,
    "Latitude": 37.76253711
  },
  {
    "State": "Kentucky",
    "County": "Logan",
    "Longitude": -86.87901935,
    "Latitude": 36.8597188
  },
  {
    "State": "Rhode Island",
    "County": "Bristol",
    "Longitude": -71.28385194,
    "Latitude": 41.71169465
  },
  {
    "State": "Michigan",
    "County": "Hillsdale",
    "Longitude": -84.59305475,
    "Latitude": 41.88768696
  },
  {
    "State": "Colorado",
    "County": "El Paso",
    "Longitude": -104.5257538,
    "Latitude": 38.83242336
  },
  {
    "State": "Alabama",
    "County": "Fayette",
    "Longitude": -87.73924331,
    "Latitude": 33.72117266
  },
  {
    "State": "West Virginia",
    "County": "Summers",
    "Longitude": -80.85840283,
    "Latitude": 37.65596695
  },
  {
    "State": "Nebraska",
    "County": "Pierce",
    "Longitude": -97.60122773,
    "Latitude": 42.26434853
  },
  {
    "State": "Missouri",
    "County": "Pulaski",
    "Longitude": -92.20749866,
    "Latitude": 37.82458658
  },
  {
    "State": "Ohio",
    "County": "Wayne",
    "Longitude": -81.88780787,
    "Latitude": 40.82926705
  },
  {
    "State": "Michigan",
    "County": "Midland",
    "Longitude": -84.38804837,
    "Latitude": 43.64674881
  },
  {
    "State": "Iowa",
    "County": "Linn",
    "Longitude": -91.59809485,
    "Latitude": 42.07923082
  },
  {
    "State": "Idaho",
    "County": "Boise",
    "Longitude": -115.730321,
    "Latitude": 43.98909247
  },
  {
    "State": "Minnesota",
    "County": "Douglas",
    "Longitude": -95.45422901,
    "Latitude": 45.93372693
  },
  {
    "State": "Illinois",
    "County": "Franklin",
    "Longitude": -88.9239703,
    "Latitude": 37.99202257
  },
  {
    "State": "Missouri",
    "County": "Texas",
    "Longitude": -91.96523434,
    "Latitude": 37.3167567
  },
  {
    "State": "Missouri",
    "County": "Caldwell",
    "Longitude": -93.98309623,
    "Latitude": 39.65668445
  },
  {
    "State": "Wisconsin",
    "County": "Monroe",
    "Longitude": -90.61820195,
    "Latitude": 43.94576215
  },
  {
    "State": "Wisconsin",
    "County": "Dane",
    "Longitude": -89.41786325,
    "Latitude": 43.06746565
  },
  {
    "State": "Tennessee",
    "County": "Obion",
    "Longitude": -89.1487146,
    "Latitude": 36.35824874
  },
  {
    "State": "Georgia",
    "County": "Haralson",
    "Longitude": -85.21085788,
    "Latitude": 33.79399282
  },
  {
    "State": "Kansas",
    "County": "Sumner",
    "Longitude": -97.476759,
    "Latitude": 37.2369258
  },
  {
    "State": "Louisiana",
    "County": "Claiborne",
    "Longitude": -92.99565971,
    "Latitude": 32.82277025
  },
  {
    "State": "Montana",
    "County": "Liberty",
    "Longitude": -111.0252038,
    "Latitude": 48.56122467
  },
  {
    "State": "Mississippi",
    "County": "Noxubee",
    "Longitude": -88.56962273,
    "Latitude": 33.1101406
  },
  {
    "State": "Mississippi",
    "County": "Lauderdale",
    "Longitude": -88.66247435,
    "Latitude": 32.40429857
  },
  {
    "State": "Georgia",
    "County": "Pickens",
    "Longitude": -84.46567239,
    "Latitude": 34.46423209
  },
  {
    "State": "Texas",
    "County": "Deaf Smith",
    "Longitude": -102.6052738,
    "Latitude": 34.96515022
  },
  {
    "State": "Pennsylvania",
    "County": "Snyder",
    "Longitude": -77.06984318,
    "Latitude": 40.76993359
  },
  {
    "State": "Oklahoma",
    "County": "Noble",
    "Longitude": -97.23050054,
    "Latitude": 36.3884853
  },
  {
    "State": "Kansas",
    "County": "Lyon",
    "Longitude": -96.15280427,
    "Latitude": 38.45580918
  },
  {
    "State": "Illinois",
    "County": "Kendall",
    "Longitude": -88.42879892,
    "Latitude": 41.59088826
  },
  {
    "State": "Michigan",
    "County": "Eaton",
    "Longitude": -84.83740035,
    "Latitude": 42.59599185
  },
  {
    "State": "Illinois",
    "County": "De Witt",
    "Longitude": -88.90408529,
    "Latitude": 40.17434051
  },
  {
    "State": "Missouri",
    "County": "Adair",
    "Longitude": -92.6007527,
    "Latitude": 40.19054871
  },
  {
    "State": "Iowa",
    "County": "Cass",
    "Longitude": -94.92806328,
    "Latitude": 41.33152905
  },
  {
    "State": "Mississippi",
    "County": "Pontotoc",
    "Longitude": -89.03719509,
    "Latitude": 34.22521097
  },
  {
    "State": "Texas",
    "County": "Uvalde",
    "Longitude": -99.76229172,
    "Latitude": 29.35739637
  },
  {
    "State": "Virginia",
    "County": "Martinsville",
    "Longitude": -79.86345947,
    "Latitude": 36.68207476
  },
  {
    "State": "Oklahoma",
    "County": "Caddo",
    "Longitude": -98.37502407,
    "Latitude": 35.17437642
  },
  {
    "State": "Minnesota",
    "County": "Rice",
    "Longitude": -93.2965986,
    "Latitude": 44.35432778
  },
  {
    "State": "Minnesota",
    "County": "Swift",
    "Longitude": -95.68142474,
    "Latitude": 45.28288933
  },
  {
    "State": "Michigan",
    "County": "Lake",
    "Longitude": -85.80209274,
    "Latitude": 43.99041242
  },
  {
    "State": "Wisconsin",
    "County": "Washburn",
    "Longitude": -91.79131495,
    "Latitude": 45.89909725
  },
  {
    "State": "Indiana",
    "County": "Allen",
    "Longitude": -85.06652248,
    "Latitude": 41.0912565
  },
  {
    "State": "Nebraska",
    "County": "Adams",
    "Longitude": -98.50117804,
    "Latitude": 40.5244942
  },
  {
    "State": "Unknown",
    "County": "Rose Island",
    "Longitude": -168.1521132,
    "Latitude": -14.54212416
  },
  {
    "State": "Kansas",
    "County": "Wichita",
    "Longitude": -101.3471509,
    "Latitude": 38.48178252
  },
  {
    "State": "Wisconsin",
    "County": "Outagamie",
    "Longitude": -88.46565023,
    "Latitude": 44.41578887
  },
  {
    "State": "Texas",
    "County": "Sutton",
    "Longitude": -100.5382117,
    "Latitude": 30.4985468
  },
  {
    "State": "Texas",
    "County": "Dimmit",
    "Longitude": -99.75646833,
    "Latitude": 28.42276169
  },
  {
    "State": "Texas",
    "County": "Ellis",
    "Longitude": -96.79470819,
    "Latitude": 32.34880007
  },
  {
    "State": "Texas",
    "County": "Swisher",
    "Longitude": -101.7349174,
    "Latitude": 34.53028891
  },
  {
    "State": "New York",
    "County": "Chenango",
    "Longitude": -75.61144344,
    "Latitude": 42.49352629
  },
  {
    "State": "North Dakota",
    "County": "Hettinger",
    "Longitude": -102.4607133,
    "Latitude": 46.43276791
  },
  {
    "State": "Ohio",
    "County": "Highland",
    "Longitude": -83.60078719,
    "Latitude": 39.18468334
  },
  {
    "State": "Georgia",
    "County": "Thomas",
    "Longitude": -83.91853341,
    "Latitude": 30.86359281
  },
  {
    "State": "Indiana",
    "County": "Benton",
    "Longitude": -87.31082597,
    "Latitude": 40.60631635
  },
  {
    "State": "Kansas",
    "County": "Phillips",
    "Longitude": -99.34669372,
    "Latitude": 39.78462799
  },
  {
    "State": "Michigan",
    "County": "Luce",
    "Longitude": -85.54389048,
    "Latitude": 46.4704998
  },
  {
    "State": "South Dakota",
    "County": "Moody",
    "Longitude": -96.67091097,
    "Latitude": 44.02224521
  },
  {
    "State": "North Carolina",
    "County": "Chowan",
    "Longitude": -76.60802425,
    "Latitude": 36.14854015
  },
  {
    "State": "Ohio",
    "County": "Williams",
    "Longitude": -84.58816167,
    "Latitude": 41.56027968
  },
  {
    "State": "Oklahoma",
    "County": "Washington",
    "Longitude": -95.90449238,
    "Latitude": 36.71527849
  },
  {
    "State": "North Carolina",
    "County": "Stokes",
    "Longitude": -80.23912302,
    "Latitude": 36.40186627
  },
  {
    "State": "Missouri",
    "County": "Howell",
    "Longitude": -91.88649829,
    "Latitude": 36.77371722
  },
  {
    "State": "New Hampshire",
    "County": "Grafton",
    "Longitude": -71.82064764,
    "Latitude": 43.94073661
  },
  {
    "State": "Michigan",
    "County": "Oceana",
    "Longitude": -86.26734566,
    "Latitude": 43.64097781
  },
  {
    "State": "Colorado",
    "County": "Gilpin",
    "Longitude": -105.5221395,
    "Latitude": 39.85721134
  },
  {
    "State": "Arkansas",
    "County": "Van Buren",
    "Longitude": -92.51610324,
    "Latitude": 35.58054667
  },
  {
    "State": "Washington",
    "County": "Chelan",
    "Longitude": -120.6188281,
    "Latitude": 47.86921949
  },
  {
    "State": "West Virginia",
    "County": "Ohio",
    "Longitude": -80.61888538,
    "Latitude": 40.09682683
  },
  {
    "State": "Nebraska",
    "County": "York",
    "Longitude": -97.59710186,
    "Latitude": 40.87272618
  },
  {
    "State": "Nebraska",
    "County": "Buffalo",
    "Longitude": -99.07510068,
    "Latitude": 40.85504881
  },
  {
    "State": "Ohio",
    "County": "Sandusky",
    "Longitude": -83.14419942,
    "Latitude": 41.35730372
  },
  {
    "State": "Oklahoma",
    "County": "Custer",
    "Longitude": -99.0014123,
    "Latitude": 35.63856198
  },
  {
    "State": "Indiana",
    "County": "Madison",
    "Longitude": -85.71947571,
    "Latitude": 40.16126825
  },
  {
    "State": "Kansas",
    "County": "Neosho",
    "Longitude": -95.30682401,
    "Latitude": 37.5582728
  },
  {
    "State": "Kansas",
    "County": "Hodgeman",
    "Longitude": -99.89821264,
    "Latitude": 38.08784693
  },
  {
    "State": "Mississippi",
    "County": "Yalobusha",
    "Longitude": -89.70745642,
    "Latitude": 34.02831011
  },
  {
    "State": "Mississippi",
    "County": "Winston",
    "Longitude": -89.03430894,
    "Latitude": 33.0883872
  },
  {
    "State": "Missouri",
    "County": "Shelby",
    "Longitude": -92.07658198,
    "Latitude": 39.7979959
  },
  {
    "State": "Kentucky",
    "County": "Franklin",
    "Longitude": -84.87704049,
    "Latitude": 38.23894371
  },
  {
    "State": "Puerto Rico",
    "County": "Naranjito",
    "Longitude": -66.25362073,
    "Latitude": 18.28716348
  },
  {
    "State": "Nebraska",
    "County": "Perkins",
    "Longitude": -101.6502998,
    "Latitude": 40.85082266
  },
  {
    "State": "Indiana",
    "County": "Clinton",
    "Longitude": -86.475326,
    "Latitude": 40.30214562
  },
  {
    "State": "Iowa",
    "County": "Dallas",
    "Longitude": -94.03970701,
    "Latitude": 41.68489264
  },
  {
    "State": "Missouri",
    "County": "McDonald",
    "Longitude": -94.34823345,
    "Latitude": 36.6286562
  },
  {
    "State": "South Dakota",
    "County": "Beadle",
    "Longitude": -98.27883711,
    "Latitude": 44.41467039
  },
  {
    "State": "South Dakota",
    "County": "Spink",
    "Longitude": -98.34623659,
    "Latitude": 44.93824835
  },
  {
    "State": "Wisconsin",
    "County": "Green Lake",
    "Longitude": -89.04505121,
    "Latitude": 43.80037233
  },
  {
    "State": "Virginia",
    "County": "Salem",
    "Longitude": -80.05325441,
    "Latitude": 37.28655753
  },
  {
    "State": "Virginia",
    "County": "Fredericksburg",
    "Longitude": -77.48619454,
    "Latitude": 38.29892214
  },
  {
    "State": "North Dakota",
    "County": "Griggs",
    "Longitude": -98.23703207,
    "Latitude": 47.4570984
  },
  {
    "State": "Alabama",
    "County": "Lee",
    "Longitude": -85.35522451,
    "Latitude": 32.60106116
  },
  {
    "State": "Arizona",
    "County": "Gila",
    "Longitude": -110.8119677,
    "Latitude": 33.79996932
  },
  {
    "State": "California",
    "County": "Placer",
    "Longitude": -120.717846,
    "Latitude": 39.06347097
  },
  {
    "State": "California",
    "County": "El Dorado",
    "Longitude": -120.5247066,
    "Latitude": 38.77888901
  },
  {
    "State": "Alaska",
    "County": "Lake and Peninsula",
    "Longitude": -156.1888735,
    "Latitude": 58.63664843
  },
  {
    "State": "Alaska",
    "County": "Kodiak Island",
    "Longitude": -153.7750279,
    "Latitude": 57.66653702
  },
  {
    "State": "Arkansas",
    "County": "Poinsett",
    "Longitude": -90.66282507,
    "Latitude": 35.57408383
  },
  {
    "State": "Georgia",
    "County": "Douglas",
    "Longitude": -84.76851394,
    "Latitude": 33.7021135
  },
  {
    "State": "Alaska",
    "County": "Skagway",
    "Longitude": -135.3374592,
    "Latitude": 59.55833766
  },
  {
    "State": "Alabama",
    "County": "Winston",
    "Longitude": -87.37341176,
    "Latitude": 34.14959585
  },
  {
    "State": "Texas",
    "County": "Wheeler",
    "Longitude": -100.2699514,
    "Latitude": 35.40114335
  },
  {
    "State": "North Carolina",
    "County": "Franklin",
    "Longitude": -78.2853416,
    "Latitude": 36.08251637
  },
  {
    "State": "Ohio",
    "County": "Union",
    "Longitude": -83.37130174,
    "Latitude": 40.29926661
  },
  {
    "State": "North Dakota",
    "County": "LaMoure",
    "Longitude": -98.53552136,
    "Latitude": 46.45686514
  },
  {
    "State": "Ohio",
    "County": "Warren",
    "Longitude": -84.16728624,
    "Latitude": 39.42735056
  },
  {
    "State": "Ohio",
    "County": "Hardin",
    "Longitude": -83.65939867,
    "Latitude": 40.66129428
  },
  {
    "State": "Georgia",
    "County": "Hall",
    "Longitude": -83.819838,
    "Latitude": 34.31734176
  },
  {
    "State": "Indiana",
    "County": "Howard",
    "Longitude": -86.1167092,
    "Latitude": 40.48362355
  },
  {
    "State": "Kansas",
    "County": "Barton",
    "Longitude": -98.75632156,
    "Latitude": 38.478934
  },
  {
    "State": "Mississippi",
    "County": "Franklin",
    "Longitude": -90.89833873,
    "Latitude": 31.47675129
  },
  {
    "State": "Illinois",
    "County": "Bureau",
    "Longitude": -89.52841534,
    "Latitude": 41.40406966
  },
  {
    "State": "Minnesota",
    "County": "Dodge",
    "Longitude": -92.86236786,
    "Latitude": 44.02229546
  },
  {
    "State": "Wisconsin",
    "County": "Jackson",
    "Longitude": -90.80515334,
    "Latitude": 44.31927005
  },
  {
    "State": "Michigan",
    "County": "Calhoun",
    "Longitude": -85.00508394,
    "Latitude": 42.24636617
  },
  {
    "State": "Kansas",
    "County": "Ness",
    "Longitude": -99.91547333,
    "Latitude": 38.47974157
  },
  {
    "State": "Unknown",
    "County": "Swains Island",
    "Longitude": -171.0781094,
    "Latitude": -11.05493121
  },
  {
    "State": "Kansas",
    "County": "Butler",
    "Longitude": -96.83878537,
    "Latitude": 37.78134351
  },
  {
    "State": "South Dakota",
    "County": "Hyde",
    "Longitude": -99.48692012,
    "Latitude": 44.54709825
  },
  {
    "State": "South Dakota",
    "County": "Buffalo",
    "Longitude": -99.20485567,
    "Latitude": 44.07640555
  },
  {
    "State": "Texas",
    "County": "Carson",
    "Longitude": -101.3542669,
    "Latitude": 35.40365929
  },
  {
    "State": "Tennessee",
    "County": "Gibson",
    "Longitude": -88.93264081,
    "Latitude": 35.99666265
  },
  {
    "State": "Texas",
    "County": "Glasscock",
    "Longitude": -101.5207776,
    "Latitude": 31.86942909
  },
  {
    "State": "Texas",
    "County": "Lipscomb",
    "Longitude": -100.2732972,
    "Latitude": 36.27778375
  },
  {
    "State": "Texas",
    "County": "Randall",
    "Longitude": -101.8971322,
    "Latitude": 34.96585996
  },
  {
    "State": "South Dakota",
    "County": "Day",
    "Longitude": -97.60737593,
    "Latitude": 45.36728275
  },
  {
    "State": "Alabama",
    "County": "Pickens",
    "Longitude": -88.08923504,
    "Latitude": 33.28058298
  },
  {
    "State": "Illinois",
    "County": "Will",
    "Longitude": -87.97829555,
    "Latitude": 41.44485087
  },
  {
    "State": "Iowa",
    "County": "Emmet",
    "Longitude": -94.67861391,
    "Latitude": 43.37782281
  },
  {
    "State": "Iowa",
    "County": "Wayne",
    "Longitude": -93.32744042,
    "Latitude": 40.73965649
  },
  {
    "State": "Maine",
    "County": "Aroostook",
    "Longitude": -68.5987449,
    "Latitude": 46.65913528
  },
  {
    "State": "North Dakota",
    "County": "Towner",
    "Longitude": -99.24564463,
    "Latitude": 48.68566015
  },
  {
    "State": "North Dakota",
    "County": "Bottineau",
    "Longitude": -100.8333086,
    "Latitude": 48.792102
  },
  {
    "State": "North Carolina",
    "County": "Polk",
    "Longitude": -82.17008141,
    "Latitude": 35.27959223
  },
  {
    "State": "Minnesota",
    "County": "Martin",
    "Longitude": -94.55099667,
    "Latitude": 43.67430059
  },
  {
    "State": "Nevada",
    "County": "Humboldt",
    "Longitude": -118.1118195,
    "Latitude": 41.4063802
  },
  {
    "State": "Georgia",
    "County": "Randolph",
    "Longitude": -84.75379101,
    "Latitude": 31.7621807
  },
  {
    "State": "Georgia",
    "County": "Treutlen",
    "Longitude": -82.56783271,
    "Latitude": 32.40331611
  },
  {
    "State": "Alabama",
    "County": "Bullock",
    "Longitude": -85.71572943,
    "Latitude": 32.10045868
  },
  {
    "State": "Texas",
    "County": "Oldham",
    "Longitude": -102.6027421,
    "Latitude": 35.40425708
  },
  {
    "State": "North Carolina",
    "County": "Lincoln",
    "Longitude": -81.22393811,
    "Latitude": 35.48589556
  },
  {
    "State": "North Dakota",
    "County": "Pierce",
    "Longitude": -99.97174953,
    "Latitude": 48.24958064
  },
  {
    "State": "New York",
    "County": "Fulton",
    "Longitude": -74.42194258,
    "Latitude": 43.11377432
  },
  {
    "State": "Nebraska",
    "County": "Greeley",
    "Longitude": -98.52144222,
    "Latitude": 41.56747021
  },
  {
    "State": "Indiana",
    "County": "Tippecanoe",
    "Longitude": -86.89407624,
    "Latitude": 40.38871167
  },
  {
    "State": "Indiana",
    "County": "Lawrence",
    "Longitude": -86.48322849,
    "Latitude": 38.84095382
  },
  {
    "State": "Missouri",
    "County": "Washington",
    "Longitude": -90.8786674,
    "Latitude": 37.96173417
  },
  {
    "State": "Iowa",
    "County": "Madison",
    "Longitude": -94.01554631,
    "Latitude": 41.33081904
  },
  {
    "State": "Minnesota",
    "County": "Mahnomen",
    "Longitude": -95.8091992,
    "Latitude": 47.32558784
  },
  {
    "State": "Illinois",
    "County": "Scott",
    "Longitude": -90.47455118,
    "Latitude": 39.64403604
  },
  {
    "State": "Mississippi",
    "County": "Lincoln",
    "Longitude": -90.45417438,
    "Latitude": 31.53240135
  },
  {
    "State": "Mississippi",
    "County": "Montgomery",
    "Longitude": -89.61664559,
    "Latitude": 33.49402718
  },
  {
    "State": "Vermont",
    "County": "Essex",
    "Longitude": -71.736327,
    "Latitude": 44.7283185
  },
  {
    "State": "Wisconsin",
    "County": "Manitowoc",
    "Longitude": -87.80948518,
    "Latitude": 44.11990639
  },
  {
    "State": "Texas",
    "County": "Collingsworth",
    "Longitude": -100.2700105,
    "Latitude": 34.96489439
  },
  {
    "State": "Ohio",
    "County": "Stark",
    "Longitude": -81.36571811,
    "Latitude": 40.8138382
  },
  {
    "State": "Minnesota",
    "County": "Wadena",
    "Longitude": -94.9700148,
    "Latitude": 46.5856535
  },
  {
    "State": "Missouri",
    "County": "Cedar",
    "Longitude": -93.85592541,
    "Latitude": 37.72350148
  },
  {
    "State": "Iowa",
    "County": "Butler",
    "Longitude": -92.79015971,
    "Latitude": 42.73172833
  },
  {
    "State": "Kansas",
    "County": "Franklin",
    "Longitude": -95.28621552,
    "Latitude": 38.56442768
  },
  {
    "State": "Mississippi",
    "County": "Newton",
    "Longitude": -89.11871108,
    "Latitude": 32.40013897
  },
  {
    "State": "Illinois",
    "County": "Warren",
    "Longitude": -90.61478203,
    "Latitude": 40.84888704
  },
  {
    "State": "Michigan",
    "County": "Crawford",
    "Longitude": -84.61024859,
    "Latitude": 44.68323123
  },
  {
    "State": "Indiana",
    "County": "White",
    "Longitude": -86.8655579,
    "Latitude": 40.74977914
  },
  {
    "State": "Illinois",
    "County": "Fayette",
    "Longitude": -89.02441763,
    "Latitude": 39.0000587
  },
  {
    "State": "Minnesota",
    "County": "Kandiyohi",
    "Longitude": -95.00576302,
    "Latitude": 45.15252304
  },
  {
    "State": "Indiana",
    "County": "Delaware",
    "Longitude": -85.39732772,
    "Latitude": 40.22787247
  },
  {
    "State": "Missouri",
    "County": "Webster",
    "Longitude": -92.87591692,
    "Latitude": 37.28085752
  },
  {
    "State": "Nebraska",
    "County": "Fillmore",
    "Longitude": -97.59646937,
    "Latitude": 40.52458567
  },
  {
    "State": "Kansas",
    "County": "Woodson",
    "Longitude": -95.74071995,
    "Latitude": 37.88668091
  },
  {
    "State": "Iowa",
    "County": "Greene",
    "Longitude": -94.39658081,
    "Latitude": 42.03614551
  },
  {
    "State": "Indiana",
    "County": "Fulton",
    "Longitude": -86.26356168,
    "Latitude": 41.04713247
  },
  {
    "State": "Kansas",
    "County": "Rice",
    "Longitude": -98.20053402,
    "Latitude": 38.34721983
  },
  {
    "State": "Kansas",
    "County": "Anderson",
    "Longitude": -95.29324204,
    "Latitude": 38.21396508
  },
  {
    "State": "South Dakota",
    "County": "Hand",
    "Longitude": -99.00538393,
    "Latitude": 44.54798838
  },
  {
    "State": "Wisconsin",
    "County": "Jefferson",
    "Longitude": -88.77532763,
    "Latitude": 43.02053192
  },
  {
    "State": "Virginia",
    "County": "Falls Church",
    "Longitude": -77.17519332,
    "Latitude": 38.88441803
  },
  {
    "State": "New York",
    "County": "Schuyler",
    "Longitude": -76.8749143,
    "Latitude": 42.39369114
  },
  {
    "State": "South Dakota",
    "County": "Codington",
    "Longitude": -97.18860384,
    "Latitude": 44.97790512
  },
  {
    "State": "Puerto Rico",
    "County": "Vega Baja",
    "Longitude": -66.39731281,
    "Latitude": 18.42873078
  },
  {
    "State": "South Dakota",
    "County": "Lyman",
    "Longitude": -99.84735699,
    "Latitude": 43.89597621
  },
  {
    "State": "Mississippi",
    "County": "Jones",
    "Longitude": -89.168969,
    "Latitude": 31.62257767
  },
  {
    "State": "North Carolina",
    "County": "Granville",
    "Longitude": -78.65301,
    "Latitude": 36.30365992
  },
  {
    "State": "Virginia",
    "County": "Petersburg",
    "Longitude": -77.3926205,
    "Latitude": 37.20404153
  },
  {
    "State": "Ohio",
    "County": "Medina",
    "Longitude": -81.8998621,
    "Latitude": 41.11770589
  },
  {
    "State": "Kansas",
    "County": "Rawlins",
    "Longitude": -101.07618,
    "Latitude": 39.78524494
  },
  {
    "State": "Idaho",
    "County": "Teton",
    "Longitude": -111.2078712,
    "Latitude": 43.7599238
  },
  {
    "State": "Kansas",
    "County": "Reno",
    "Longitude": -98.08586348,
    "Latitude": 37.95303921
  },
  {
    "State": "Kansas",
    "County": "Wabaunsee",
    "Longitude": -96.20480435,
    "Latitude": 38.95324678
  },
  {
    "State": "Illinois",
    "County": "Pulaski",
    "Longitude": -89.12738626,
    "Latitude": 37.22269456
  },
  {
    "State": "Oregon",
    "County": "Sherman",
    "Longitude": -120.6892687,
    "Latitude": 45.4052255
  },
  {
    "State": "Georgia",
    "County": "Echols",
    "Longitude": -82.89413878,
    "Latitude": 30.70991003
  },
  {
    "State": "Pennsylvania",
    "County": "Bedford",
    "Longitude": -78.49051194,
    "Latitude": 40.00670558
  },
  {
    "State": "Iowa",
    "County": "Buena Vista",
    "Longitude": -95.15100162,
    "Latitude": 42.73545875
  },
  {
    "State": "Iowa",
    "County": "Hamilton",
    "Longitude": -93.70672502,
    "Latitude": 42.38395377
  },
  {
    "State": "Ohio",
    "County": "Perry",
    "Longitude": -82.23618289,
    "Latitude": 39.73723959
  },
  {
    "State": "Illinois",
    "County": "Cumberland",
    "Longitude": -88.24032182,
    "Latitude": 39.27402319
  },
  {
    "State": "Illinois",
    "County": "Clark",
    "Longitude": -87.7878617,
    "Latitude": 39.33402321
  },
  {
    "State": "Iowa",
    "County": "Page",
    "Longitude": -95.15010031,
    "Latitude": 40.73917437
  },
  {
    "State": "Michigan",
    "County": "Ontonagon",
    "Longitude": -89.31491201,
    "Latitude": 46.66430808
  },
  {
    "State": "Oklahoma",
    "County": "Latimer",
    "Longitude": -95.25098995,
    "Latitude": 34.87639948
  },
  {
    "State": "Texas",
    "County": "Andrews",
    "Longitude": -102.6376348,
    "Latitude": 32.30470528
  },
  {
    "State": "Tennessee",
    "County": "Hancock",
    "Longitude": -83.2217117,
    "Latitude": 36.52355034
  },
  {
    "State": "New Mexico",
    "County": "Luna",
    "Longitude": -107.7498996,
    "Latitude": 32.18233304
  },
  {
    "State": "Nebraska",
    "County": "Franklin",
    "Longitude": -98.95299529,
    "Latitude": 40.17637323
  },
  {
    "State": "Georgia",
    "County": "McDuffie",
    "Longitude": -82.4818329,
    "Latitude": 33.48313346
  },
  {
    "State": "Alaska",
    "County": "Wade Hampton",
    "Longitude": -163.3844205,
    "Latitude": 62.15704475
  },
  {
    "State": "Alaska",
    "County": "Prince of Wales-Hyder",
    "Longitude": -133.0585096,
    "Latitude": 55.81638031
  },
  {
    "State": "California",
    "County": "San Benito",
    "Longitude": -121.0752215,
    "Latitude": 36.60559815
  },
  {
    "State": "Indiana",
    "County": "Marion",
    "Longitude": -86.13826325,
    "Latitude": 39.78163624
  },
  {
    "State": "Georgia",
    "County": "Crisp",
    "Longitude": -83.76727919,
    "Latitude": 31.92287244
  },
  {
    "State": "Virginia",
    "County": "Norfolk",
    "Longitude": -76.25967731,
    "Latitude": 36.89479704
  },
  {
    "State": "Virginia",
    "County": "Fluvanna",
    "Longitude": -78.27765024,
    "Latitude": 37.84216441
  },
  {
    "State": "Texas",
    "County": "Childress",
    "Longitude": -100.2077744,
    "Latitude": 34.52929885
  },
  {
    "State": "Oregon",
    "County": "Linn",
    "Longitude": -122.5341835,
    "Latitude": 44.48880768
  },
  {
    "State": "North Carolina",
    "County": "Alamance",
    "Longitude": -79.39913194,
    "Latitude": 36.04378576
  },
  {
    "State": "New Mexico",
    "County": "De Baca",
    "Longitude": -104.4120813,
    "Latitude": 34.34266
  },
  {
    "State": "Ohio",
    "County": "Pickaway",
    "Longitude": -83.02450193,
    "Latitude": 39.64185964
  },
  {
    "State": "Minnesota",
    "County": "Stevens",
    "Longitude": -96.00022786,
    "Latitude": 45.58615985
  },
  {
    "State": "Minnesota",
    "County": "Red Lake",
    "Longitude": -96.09561104,
    "Latitude": 47.87197525
  },
  {
    "State": "Iowa",
    "County": "Chickasaw",
    "Longitude": -92.31766909,
    "Latitude": 43.06009652
  },
  {
    "State": "Louisiana",
    "County": "Lincoln",
    "Longitude": -92.66473671,
    "Latitude": 32.60149394
  },
  {
    "State": "Mississippi",
    "County": "Chickasaw",
    "Longitude": -88.94784369,
    "Latitude": 33.92084863
  },
  {
    "State": "Missouri",
    "County": "Johnson",
    "Longitude": -93.80588795,
    "Latitude": 38.74399152
  },
  {
    "State": "Minnesota",
    "County": "Grant",
    "Longitude": -96.01216405,
    "Latitude": 45.93402352
  },
  {
    "State": "Puerto Rico",
    "County": "Luquillo",
    "Longitude": -65.72588384,
    "Latitude": 18.34258508
  },
  {
    "State": "Mississippi",
    "County": "Perry",
    "Longitude": -88.9925273,
    "Latitude": 31.17209382
  },
  {
    "State": "Unknown",
    "County": "Saipan",
    "Longitude": 145.7509098,
    "Latitude": 15.18953726
  },
  {
    "State": "Mississippi",
    "County": "Leake",
    "Longitude": -89.52402041,
    "Latitude": 32.7536828
  },